[{"_id":{"$oid":"6a07f72d5175f779df23d173"},"deleted":false,"normalizedName":"cairo central station","__v":0,"aliases":[],"coordinates":{"type":"Point","coordinates":[31.2357,30.0444]},"country":"Egypt","createdAt":{"$date":"2026-05-16T04:48:45.848Z"},"name":"Cairo Central Station","priority":0,"status":"active","timezone":"Africa/Cairo","updatedAt":{"$date":"2026-05-16T04:52:04.121Z"}},{"_id":{"$oid":"6a07f72d5175f779df23d174"},"normalizedName":"giza station","deleted":false,"__v":0,"aliases":[],"coordinates":{"type":"Point","coordinates":[31.211,30.013]},"country":"Egypt","createdAt":{"$date":"2026-05-16T04:48:45.848Z"},"name":"Giza Station","priority":0,"status":"active","timezone":"Africa/Cairo","updatedAt":{"$date":"2026-05-16T04:52:53.462Z"}},{"_id":{"$oid":"6a07f72d5175f779df23d175"},"deleted":false,"normalizedName":"banha station","__v":0,"aliases":[],"coordinates":{"type":"Point","coordinates":[31.182,30.466]},"country":"Egypt","createdAt":{"$date":"2026-05-16T04:48:45.848Z"},"name":"Banha Station","priority":0,"status":"active","timezone":"Africa/Cairo","updatedAt":{"$date":"2026-05-16T04:52:53.462Z"}},{"_id":{"$oid":"6a07f72d5175f779df23d176"},"normalizedName":"tanta station","deleted":false,"__v":0,"aliases":[],"coordinates":{"type":"Point","coordinates":[31.0019,30.7865]},"country":"Egypt","createdAt":{"$date":"2026-05-16T04:48:45.848Z"},"name":"Tanta Station","priority":0,"status":"active","timezone":"Africa/Cairo","updatedAt":{"$date":"2026-05-16T04:52:04.121Z"}},{"_id":{"$oid":"6a07f72d5175f779df23d177"},"deleted":false,"normalizedName":"damanhur station","__v":0,"aliases":[],"coordinates":{"type":"Point","coordinates":[30.47,31.0341]},"country":"Egypt","createdAt":{"$date":"2026-05-16T04:48:45.848Z"},"name":"Damanhur Station","priority":0,"status":"active","timezone":"Africa/Cairo","updatedAt":{"$date":"2026-05-16T04:48:45.848Z"}},{"_id":{"$oid":"6a07f72d5175f779df23d178"},"normalizedName":"alexandria main station","deleted":false,"__v":0,"aliases":[],"coordinates":{"type":"Point","coordinates":[29.905,31.2001]},"country":"Egypt","createdAt":{"$date":"2026-05-16T04:48:45.848Z"},"name":"Alexandria Main Station","priority":0,"status":"active","timezone":"Africa/Cairo","updatedAt":{"$date":"2026-05-16T04:48:45.848Z"}},{"_id":{"$oid":"6a07f72d5175f779df23d179"},"deleted":false,"normalizedName":"kafr el sheikh station","__v":0,"aliases":[],"coordinates":{"type":"Point","coordinates":[30.94,31.115]},"country":"Egypt","createdAt":{"$date":"2026-05-16T04:48:45.848Z"},"name":"Kafr El Sheikh Station","priority":0,"status":"active","timezone":"Africa/Cairo","updatedAt":{"$date":"2026-05-16T04:48:45.848Z"}},{"_id":{"$oid":"6a07f72d5175f779df23d17a"},"normalizedName":"mansoura station","deleted":false,"__v":0,"aliases":[],"coordinates":{"type":"Point","coordinates":[31.38,31.04]},"country":"Egypt","createdAt":{"$date":"2026-05-16T04:48:45.848Z"},"name":"Mansoura Station","priority":0,"status":"active","timezone":"Africa/Cairo","updatedAt":{"$date":"2026-05-16T04:52:53.462Z"}},{"_id":{"$oid":"6a07f72d5175f779df23d17b"},"deleted":false,"normalizedName":"zagazig station","__v":0,"aliases":[],"coordinates":{"type":"Point","coordinates":[31.502,30.587]},"country":"Egypt","createdAt":{"$date":"2026-05-16T04:48:45.848Z"},"name":"Zagazig Station","priority":0,"status":"active","timezone":"Africa/Cairo","updatedAt":{"$date":"2026-05-16T04:52:53.462Z"}},{"_id":{"$oid":"6a07f72d5175f779df23d17c"},"normalizedName":"ismailia station","deleted":false,"__v":0,"aliases":[],"coordinates":{"type":"Point","coordinates":[32.2654,30.5965]},"country":"Egypt","createdAt":{"$date":"2026-05-16T04:48:45.848Z"},"name":"Ismailia Station","priority":0,"status":"active","timezone":"Africa/Cairo","updatedAt":{"$date":"2026-05-16T04:48:45.848Z"}},{"_id":{"$oid":"6a07f72d5175f779df23d17d"},"deleted":false,"normalizedName":"suez station","__v":0,"aliases":[],"coordinates":{"type":"Point","coordinates":[32.5498,29.9668]},"country":"Egypt","createdAt":{"$date":"2026-05-16T04:48:45.848Z"},"name":"Suez Station","priority":0,"status":"active","timezone":"Africa/Cairo","updatedAt":{"$date":"2026-05-16T04:48:45.848Z"}},{"_id":{"$oid":"6a07f72d5175f779df23d17e"},"normalizedName":"fayoum station","deleted":false,"__v":0,"aliases":[],"coordinates":{"type":"Point","coordinates":[30.8428,29.3084]},"country":"Egypt","createdAt":{"$date":"2026-05-16T04:48:45.848Z"},"name":"Fayoum Station","priority":0,"status":"active","timezone":"Africa/Cairo","updatedAt":{"$date":"2026-05-16T04:50:43.099Z"}},{"_id":{"$oid":"6a07f72d5175f779df23d17f"},"deleted":false,"normalizedName":"beni suef station","__v":0,"aliases":[],"coordinates":{"type":"Point","coordinates":[31.0994,29.0661]},"country":"Egypt","createdAt":{"$date":"2026-05-16T04:48:45.848Z"},"name":"Beni Suef Station","priority":0,"status":"active","timezone":"Africa/Cairo","updatedAt":{"$date":"2026-05-16T04:50:43.099Z"}},{"_id":{"$oid":"6a07f72d5175f779df23d180"},"normalizedName":"minya station","deleted":false,"__v":0,"aliases":[],"coordinates":{"type":"Point","coordinates":[30.7503,28.1099]},"country":"Egypt","createdAt":{"$date":"2026-05-16T04:48:45.848Z"},"name":"Minya Station","priority":0,"status":"active","timezone":"Africa/Cairo","updatedAt":{"$date":"2026-05-16T04:48:45.848Z"}},{"_id":{"$oid":"6a07f72d5175f779df23d181"},"deleted":false,"normalizedName":"mallawi station","__v":0,"aliases":[],"coordinates":{"type":"Point","coordinates":[30.839,27.732]},"country":"Egypt","createdAt":{"$date":"2026-05-16T04:48:45.848Z"},"name":"Mallawi Station","priority":0,"status":"active","timezone":"Africa/Cairo","updatedAt":{"$date":"2026-05-16T04:50:43.099Z"}},{"_id":{"$oid":"6a07f72d5175f779df23d182"},"normalizedName":"asyut station","deleted":false,"__v":0,"aliases":[],"coordinates":{"type":"Point","coordinates":[31.1825,27.1809]},"country":"Egypt","createdAt":{"$date":"2026-05-16T04:48:45.848Z"},"name":"Asyut Station","priority":0,"status":"active","timezone":"Africa/Cairo","updatedAt":{"$date":"2026-05-16T04:48:45.848Z"}},{"_id":{"$oid":"6a07f72d5175f779df23d183"},"deleted":false,"normalizedName":"abnub station","__v":0,"aliases":[],"coordinates":{"type":"Point","coordinates":[31.158,27.27]},"country":"Egypt","createdAt":{"$date":"2026-05-16T04:48:45.848Z"},"name":"Abnub Station","priority":0,"status":"active","timezone":"Africa/Cairo","updatedAt":{"$date":"2026-05-16T04:48:45.848Z"}},{"_id":{"$oid":"6a07f72d5175f779df23d184"},"normalizedName":"sohag station","deleted":false,"__v":0,"aliases":[],"coordinates":{"type":"Point","coordinates":[31.6948,26.5569]},"country":"Egypt","createdAt":{"$date":"2026-05-16T04:48:45.848Z"},"name":"Sohag Station","priority":0,"status":"active","timezone":"Africa/Cairo","updatedAt":{"$date":"2026-05-16T04:48:45.848Z"}},{"_id":{"$oid":"6a07f72d5175f779df23d185"},"deleted":false,"normalizedName":"tahta station","__v":0,"aliases":[],"coordinates":{"type":"Point","coordinates":[31.502,26.769]},"country":"Egypt","createdAt":{"$date":"2026-05-16T04:48:45.848Z"},"name":"Tahta Station","priority":0,"status":"active","timezone":"Africa/Cairo","updatedAt":{"$date":"2026-05-16T04:50:43.099Z"}},{"_id":{"$oid":"6a07f72d5175f779df23d186"},"normalizedName":"akhmim station","deleted":false,"__v":0,"aliases":[],"coordinates":{"type":"Point","coordinates":[31.743,26.562]},"country":"Egypt","createdAt":{"$date":"2026-05-16T04:48:45.848Z"},"name":"Akhmim Station","priority":0,"status":"active","timezone":"Africa/Cairo","updatedAt":{"$date":"2026-05-16T04:50:43.099Z"}},{"_id":{"$oid":"6a07f72d5175f779df23d187"},"deleted":false,"normalizedName":"qena station","__v":0,"aliases":[],"coordinates":{"type":"Point","coordinates":[32.7183,26.1642]},"country":"Egypt","createdAt":{"$date":"2026-05-16T04:48:45.848Z"},"name":"Qena Station","priority":0,"status":"active","timezone":"Africa/Cairo","updatedAt":{"$date":"2026-05-16T04:51:13.203Z"}},{"_id":{"$oid":"6a07f72d5175f779df23d188"},"normalizedName":"nag hammadi station","deleted":false,"__v":0,"aliases":[],"coordinates":{"type":"Point","coordinates":[32.24,26.049]},"country":"Egypt","createdAt":{"$date":"2026-05-16T04:48:45.848Z"},"name":"Nag Hammadi Station","priority":0,"status":"active","timezone":"Africa/Cairo","updatedAt":{"$date":"2026-05-16T04:50:43.099Z"}},{"_id":{"$oid":"6a07f72d5175f779df23d189"},"deleted":false,"normalizedName":"luxor station","__v":0,"aliases":[],"coordinates":{"type":"Point","coordinates":[32.6396,25.6872]},"country":"Egypt","createdAt":{"$date":"2026-05-16T04:48:45.848Z"},"name":"Luxor Station","priority":0,"status":"active","timezone":"Africa/Cairo","updatedAt":{"$date":"2026-05-16T04:51:13.203Z"}},{"_id":{"$oid":"6a07f72d5175f779df23d18a"},"normalizedName":"esna station","deleted":false,"__v":0,"aliases":[],"coordinates":{"type":"Point","coordinates":[32.555,25.293]},"country":"Egypt","createdAt":{"$date":"2026-05-16T04:48:45.848Z"},"name":"Esna Station","priority":0,"status":"active","timezone":"Africa/Cairo","updatedAt":{"$date":"2026-05-16T04:51:13.203Z"}},{"_id":{"$oid":"6a07f72d5175f779df23d18b"},"deleted":false,"normalizedName":"aswan station","__v":0,"aliases":[],"coordinates":{"type":"Point","coordinates":[32.8998,24.0889]},"country":"Egypt","createdAt":{"$date":"2026-05-16T04:48:45.848Z"},"name":"Aswan Station","priority":0,"status":"active","timezone":"Africa/Cairo","updatedAt":{"$date":"2026-05-16T04:51:13.203Z"}},{"_id":{"$oid":"6a07f74a5175f779df23d18c"},"deleted":false,"normalizedName":"shubra el kheima station","__v":0,"aliases":[],"coordinates":{"type":"Point","coordinates":[31.245,30.128]},"country":"Egypt","createdAt":{"$date":"2026-05-16T04:49:14.815Z"},"name":"Shubra El Kheima Station","priority":0,"status":"active","timezone":"Africa/Cairo","updatedAt":{"$date":"2026-05-16T04:52:53.462Z"}},{"_id":{"$oid":"6a07f74a5175f779df23d18d"},"normalizedName":"qalyub station","deleted":false,"__v":0,"aliases":[],"coordinates":{"type":"Point","coordinates":[31.207,30.179]},"country":"Egypt","createdAt":{"$date":"2026-05-16T04:49:14.815Z"},"name":"Qalyub Station","priority":0,"status":"active","timezone":"Africa/Cairo","updatedAt":{"$date":"2026-05-16T04:52:53.462Z"}},{"_id":{"$oid":"6a07f74a5175f779df23d18e"},"deleted":false,"normalizedName":"qaha station","__v":0,"aliases":[],"coordinates":{"type":"Point","coordinates":[31.2055,30.282]},"country":"Egypt","createdAt":{"$date":"2026-05-16T04:49:14.815Z"},"name":"Qaha Station","priority":0,"status":"active","timezone":"Africa/Cairo","updatedAt":{"$date":"2026-05-16T04:49:14.815Z"}},{"_id":{"$oid":"6a07f74a5175f779df23d18f"},"normalizedName":"benha university station","deleted":false,"__v":0,"aliases":[],"coordinates":{"type":"Point","coordinates":[31.184,30.46]},"country":"Egypt","createdAt":{"$date":"2026-05-16T04:49:14.815Z"},"name":"Benha University Station","priority":0,"status":"active","timezone":"Africa/Cairo","updatedAt":{"$date":"2026-05-16T04:49:14.815Z"}},{"_id":{"$oid":"6a07f74a5175f779df23d190"},"deleted":false,"normalizedName":"ashmoun station","__v":0,"aliases":[],"coordinates":{"type":"Point","coordinates":[30.954,30.297]},"country":"Egypt","createdAt":{"$date":"2026-05-16T04:49:14.815Z"},"name":"Ashmoun Station","priority":0,"status":"active","timezone":"Africa/Cairo","updatedAt":{"$date":"2026-05-16T04:49:14.815Z"}},{"_id":{"$oid":"6a07f74a5175f779df23d191"},"normalizedName":"shebin el kom station","deleted":false,"__v":0,"aliases":[],"coordinates":{"type":"Point","coordinates":[31.009,30.558]},"country":"Egypt","createdAt":{"$date":"2026-05-16T04:49:14.815Z"},"name":"Shebin El Kom Station","priority":0,"status":"active","timezone":"Africa/Cairo","updatedAt":{"$date":"2026-05-16T04:49:14.815Z"}},{"_id":{"$oid":"6a07f74a5175f779df23d192"},"deleted":false,"normalizedName":"menouf station","__v":0,"aliases":[],"coordinates":{"type":"Point","coordinates":[30.95,30.465]},"country":"Egypt","createdAt":{"$date":"2026-05-16T04:49:14.815Z"},"name":"Menouf Station","priority":0,"status":"active","timezone":"Africa/Cairo","updatedAt":{"$date":"2026-05-16T04:49:14.815Z"}},{"_id":{"$oid":"6a07f74a5175f779df23d193"},"normalizedName":"kafr dawar station","deleted":false,"__v":0,"aliases":[],"coordinates":{"type":"Point","coordinates":[30.13,31.133]},"country":"Egypt","createdAt":{"$date":"2026-05-16T04:49:14.815Z"},"name":"Kafr Dawar Station","priority":0,"status":"active","timezone":"Africa/Cairo","updatedAt":{"$date":"2026-05-16T04:49:14.815Z"}},{"_id":{"$oid":"6a07f74a5175f779df23d194"},"deleted":false,"normalizedName":"edku station","__v":0,"aliases":[],"coordinates":{"type":"Point","coordinates":[30.3,31.31]},"country":"Egypt","createdAt":{"$date":"2026-05-16T04:49:14.815Z"},"name":"Edku Station","priority":0,"status":"active","timezone":"Africa/Cairo","updatedAt":{"$date":"2026-05-16T04:52:04.121Z"}},{"_id":{"$oid":"6a07f74a5175f779df23d195"},"normalizedName":"rosetta station","deleted":false,"__v":0,"aliases":[],"coordinates":{"type":"Point","coordinates":[30.417,31.536]},"country":"Egypt","createdAt":{"$date":"2026-05-16T04:49:14.815Z"},"name":"Rosetta Station","priority":0,"status":"active","timezone":"Africa/Cairo","updatedAt":{"$date":"2026-05-16T04:49:14.815Z"}},{"_id":{"$oid":"6a07f74a5175f779df23d196"},"deleted":false,"normalizedName":"port said station","__v":0,"aliases":[],"coordinates":{"type":"Point","coordinates":[32.3019,31.2653]},"country":"Egypt","createdAt":{"$date":"2026-05-16T04:49:14.815Z"},"name":"Port Said Station","priority":0,"status":"active","timezone":"Africa/Cairo","updatedAt":{"$date":"2026-05-16T04:52:53.462Z"}},{"_id":{"$oid":"6a07f74a5175f779df23d197"},"normalizedName":"port fouad station","deleted":false,"__v":0,"aliases":[],"coordinates":{"type":"Point","coordinates":[32.324,31.242]},"country":"Egypt","createdAt":{"$date":"2026-05-16T04:49:14.815Z"},"name":"Port Fouad Station","priority":0,"status":"active","timezone":"Africa/Cairo","updatedAt":{"$date":"2026-05-16T04:52:53.462Z"}},{"_id":{"$oid":"6a07f74a5175f779df23d198"},"deleted":false,"normalizedName":"damietta station","__v":0,"aliases":[],"coordinates":{"type":"Point","coordinates":[31.812,31.417]},"country":"Egypt","createdAt":{"$date":"2026-05-16T04:49:14.815Z"},"name":"Damietta Station","priority":0,"status":"active","timezone":"Africa/Cairo","updatedAt":{"$date":"2026-05-16T04:52:53.462Z"}},{"_id":{"$oid":"6a07f74a5175f779df23d199"},"normalizedName":"new damietta station","deleted":false,"__v":0,"aliases":[],"coordinates":{"type":"Point","coordinates":[31.672,31.467]},"country":"Egypt","createdAt":{"$date":"2026-05-16T04:49:14.815Z"},"name":"New Damietta Station","priority":0,"status":"active","timezone":"Africa/Cairo","updatedAt":{"$date":"2026-05-16T04:52:53.462Z"}},{"_id":{"$oid":"6a07f74a5175f779df23d19a"},"deleted":false,"normalizedName":"manshiet el bakry station","__v":0,"aliases":[],"coordinates":{"type":"Point","coordinates":[31.32,30.08]},"country":"Egypt","createdAt":{"$date":"2026-05-16T04:49:14.815Z"},"name":"Manshiet El Bakry Station","priority":0,"status":"active","timezone":"Africa/Cairo","updatedAt":{"$date":"2026-05-16T04:49:14.815Z"}},{"_id":{"$oid":"6a07f74a5175f779df23d19b"},"normalizedName":"helwan station","deleted":false,"__v":0,"aliases":[],"coordinates":{"type":"Point","coordinates":[31.334,29.849]},"country":"Egypt","createdAt":{"$date":"2026-05-16T04:49:14.815Z"},"name":"Helwan Station","priority":0,"status":"active","timezone":"Africa/Cairo","updatedAt":{"$date":"2026-05-16T04:52:53.462Z"}},{"_id":{"$oid":"6a07f74a5175f779df23d19c"},"deleted":false,"normalizedName":"maadi station","__v":0,"aliases":[],"coordinates":{"type":"Point","coordinates":[31.252,29.96]},"country":"Egypt","createdAt":{"$date":"2026-05-16T04:49:14.815Z"},"name":"Maadi Station","priority":0,"status":"active","timezone":"Africa/Cairo","updatedAt":{"$date":"2026-05-16T04:52:53.462Z"}},{"_id":{"$oid":"6a07f74a5175f779df23d19d"},"normalizedName":"imbaba station","deleted":false,"__v":0,"aliases":[],"coordinates":{"type":"Point","coordinates":[31.204,30.079]},"country":"Egypt","createdAt":{"$date":"2026-05-16T04:49:14.815Z"},"name":"Imbaba Station","priority":0,"status":"active","timezone":"Africa/Cairo","updatedAt":{"$date":"2026-05-16T04:52:53.462Z"}},{"_id":{"$oid":"6a07f74a5175f779df23d19e"},"deleted":false,"normalizedName":"dokki station","__v":0,"aliases":[],"coordinates":{"type":"Point","coordinates":[31.207,30.038]},"country":"Egypt","createdAt":{"$date":"2026-05-16T04:49:14.815Z"},"name":"Dokki Station","priority":0,"status":"active","timezone":"Africa/Cairo","updatedAt":{"$date":"2026-05-16T04:52:53.462Z"}},{"_id":{"$oid":"6a07f74a5175f779df23d19f"},"normalizedName":"6th of october station","deleted":false,"__v":0,"aliases":[],"coordinates":{"type":"Point","coordinates":[30.969,29.988]},"country":"Egypt","createdAt":{"$date":"2026-05-16T04:49:14.815Z"},"name":"6th of October Station","priority":0,"status":"active","timezone":"Africa/Cairo","updatedAt":{"$date":"2026-05-16T04:52:53.462Z"}},{"_id":{"$oid":"6a07f74a5175f779df23d1a0"},"deleted":false,"normalizedName":"sadat city station","__v":0,"aliases":[],"coordinates":{"type":"Point","coordinates":[30.41,30.36]},"country":"Egypt","createdAt":{"$date":"2026-05-16T04:49:14.815Z"},"name":"Sadat City Station","priority":0,"status":"active","timezone":"Africa/Cairo","updatedAt":{"$date":"2026-05-16T04:49:14.815Z"}},{"_id":{"$oid":"6a07f74a5175f779df23d1a1"},"normalizedName":"el mahalla el kubra station","deleted":false,"__v":0,"aliases":[],"coordinates":{"type":"Point","coordinates":[31.165,30.97]},"country":"Egypt","createdAt":{"$date":"2026-05-16T04:49:14.815Z"},"name":"El Mahalla El Kubra Station","priority":0,"status":"active","timezone":"Africa/Cairo","updatedAt":{"$date":"2026-05-16T04:49:14.815Z"}},{"_id":{"$oid":"6a07f74a5175f779df23d1a2"},"deleted":false,"normalizedName":"kafr el zayat station","__v":0,"aliases":[],"coordinates":{"type":"Point","coordinates":[30.82,30.82]},"country":"Egypt","createdAt":{"$date":"2026-05-16T04:49:14.815Z"},"name":"Kafr El Zayat Station","priority":0,"status":"active","timezone":"Africa/Cairo","updatedAt":{"$date":"2026-05-16T04:52:04.121Z"}},{"_id":{"$oid":"6a07f74a5175f779df23d1a3"},"normalizedName":"fowa station","deleted":false,"__v":0,"aliases":[],"coordinates":{"type":"Point","coordinates":[30.76,31.165]},"country":"Egypt","createdAt":{"$date":"2026-05-16T04:49:14.815Z"},"name":"Fowa Station","priority":0,"status":"active","timezone":"Africa/Cairo","updatedAt":{"$date":"2026-05-16T04:49:14.815Z"}},{"_id":{"$oid":"6a07f74a5175f779df23d1a4"},"deleted":false,"normalizedName":"baltim station","__v":0,"aliases":[],"coordinates":{"type":"Point","coordinates":[31.09,31.55]},"country":"Egypt","createdAt":{"$date":"2026-05-16T04:49:14.815Z"},"name":"Baltim Station","priority":0,"status":"active","timezone":"Africa/Cairo","updatedAt":{"$date":"2026-05-16T04:49:14.815Z"}},{"_id":{"$oid":"6a07f7605175f779df23d1a5"},"deleted":false,"normalizedName":"arish station","__v":0,"aliases":[],"coordinates":{"type":"Point","coordinates":[33.7984,31.1313]},"country":"Egypt","createdAt":{"$date":"2026-05-16T04:49:36.938Z"},"name":"Arish Station","priority":0,"status":"active","timezone":"Africa/Cairo","updatedAt":{"$date":"2026-05-16T04:49:36.938Z"}},{"_id":{"$oid":"6a07f7605175f779df23d1a6"},"normalizedName":"sheikh zuweid station","deleted":false,"__v":0,"aliases":[],"coordinates":{"type":"Point","coordinates":[33.612,31.216]},"country":"Egypt","createdAt":{"$date":"2026-05-16T04:49:36.938Z"},"name":"Sheikh Zuweid Station","priority":0,"status":"active","timezone":"Africa/Cairo","updatedAt":{"$date":"2026-05-16T04:49:36.938Z"}},{"_id":{"$oid":"6a07f7605175f779df23d1a7"},"deleted":false,"normalizedName":"rafah station","__v":0,"aliases":[],"coordinates":{"type":"Point","coordinates":[34.236,31.287]},"country":"Egypt","createdAt":{"$date":"2026-05-16T04:49:36.938Z"},"name":"Rafah Station","priority":0,"status":"active","timezone":"Africa/Cairo","updatedAt":{"$date":"2026-05-16T04:49:36.938Z"}},{"_id":{"$oid":"6a07f7605175f779df23d1a8"},"normalizedName":"bir el abd station","deleted":false,"__v":0,"aliases":[],"coordinates":{"type":"Point","coordinates":[33.036,31.017]},"country":"Egypt","createdAt":{"$date":"2026-05-16T04:49:36.938Z"},"name":"Bir El Abd Station","priority":0,"status":"active","timezone":"Africa/Cairo","updatedAt":{"$date":"2026-05-16T04:49:36.938Z"}},{"_id":{"$oid":"6a07f7605175f779df23d1a9"},"deleted":false,"normalizedName":"ismailia east station","__v":0,"aliases":[],"coordinates":{"type":"Point","coordinates":[32.289,30.6]},"country":"Egypt","createdAt":{"$date":"2026-05-16T04:49:36.938Z"},"name":"Ismailia East Station","priority":0,"status":"active","timezone":"Africa/Cairo","updatedAt":{"$date":"2026-05-16T04:49:36.938Z"}},{"_id":{"$oid":"6a07f7605175f779df23d1aa"},"normalizedName":"el qantara east station","deleted":false,"__v":0,"aliases":[],"coordinates":{"type":"Point","coordinates":[32.318,30.851]},"country":"Egypt","createdAt":{"$date":"2026-05-16T04:49:36.938Z"},"name":"El Qantara East Station","priority":0,"status":"active","timezone":"Africa/Cairo","updatedAt":{"$date":"2026-05-16T04:49:36.938Z"}},{"_id":{"$oid":"6a07f7605175f779df23d1ab"},"deleted":false,"normalizedName":"el qantara west station","__v":0,"aliases":[],"coordinates":{"type":"Point","coordinates":[32.302,30.85]},"country":"Egypt","createdAt":{"$date":"2026-05-16T04:49:36.938Z"},"name":"El Qantara West Station","priority":0,"status":"active","timezone":"Africa/Cairo","updatedAt":{"$date":"2026-05-16T04:49:36.938Z"}},{"_id":{"$oid":"6a07f7605175f779df23d1ac"},"normalizedName":"fayed station","deleted":false,"__v":0,"aliases":[],"coordinates":{"type":"Point","coordinates":[32.276,30.362]},"country":"Egypt","createdAt":{"$date":"2026-05-16T04:49:36.938Z"},"name":"Fayed Station","priority":0,"status":"active","timezone":"Africa/Cairo","updatedAt":{"$date":"2026-05-16T04:49:36.938Z"}},{"_id":{"$oid":"6a07f7605175f779df23d1ad"},"deleted":false,"normalizedName":"abu sultan station","__v":0,"aliases":[],"coordinates":{"type":"Point","coordinates":[32.278,30.415]},"country":"Egypt","createdAt":{"$date":"2026-05-16T04:49:36.938Z"},"name":"Abu Sultan Station","priority":0,"status":"active","timezone":"Africa/Cairo","updatedAt":{"$date":"2026-05-16T04:49:36.938Z"}},{"_id":{"$oid":"6a07f7605175f779df23d1ae"},"normalizedName":"suez port station","deleted":false,"__v":0,"aliases":[],"coordinates":{"type":"Point","coordinates":[32.555,29.966]},"country":"Egypt","createdAt":{"$date":"2026-05-16T04:49:36.938Z"},"name":"Suez Port Station","priority":0,"status":"active","timezone":"Africa/Cairo","updatedAt":{"$date":"2026-05-16T04:49:36.938Z"}},{"_id":{"$oid":"6a07f7605175f779df23d1af"},"deleted":false,"normalizedName":"ain sokhna station","__v":0,"aliases":[],"coordinates":{"type":"Point","coordinates":[32.382,29.6]},"country":"Egypt","createdAt":{"$date":"2026-05-16T04:49:36.938Z"},"name":"Ain Sokhna Station","priority":0,"status":"active","timezone":"Africa/Cairo","updatedAt":{"$date":"2026-05-16T04:49:36.938Z"}},{"_id":{"$oid":"6a07f7605175f779df23d1b0"},"normalizedName":"ras gharib station","deleted":false,"__v":0,"aliases":[],"coordinates":{"type":"Point","coordinates":[33.079,28.358]},"country":"Egypt","createdAt":{"$date":"2026-05-16T04:49:36.938Z"},"name":"Ras Gharib Station","priority":0,"status":"active","timezone":"Africa/Cairo","updatedAt":{"$date":"2026-05-16T04:49:36.938Z"}},{"_id":{"$oid":"6a07f7605175f779df23d1b1"},"deleted":false,"normalizedName":"hurghada station","__v":0,"aliases":[],"coordinates":{"type":"Point","coordinates":[33.8116,27.2579]},"country":"Egypt","createdAt":{"$date":"2026-05-16T04:49:36.938Z"},"name":"Hurghada Station","priority":0,"status":"active","timezone":"Africa/Cairo","updatedAt":{"$date":"2026-05-16T04:49:36.938Z"}},{"_id":{"$oid":"6a07f7605175f779df23d1b2"},"normalizedName":"safaga station","deleted":false,"__v":0,"aliases":[],"coordinates":{"type":"Point","coordinates":[33.936,26.749]},"country":"Egypt","createdAt":{"$date":"2026-05-16T04:49:36.938Z"},"name":"Safaga Station","priority":0,"status":"active","timezone":"Africa/Cairo","updatedAt":{"$date":"2026-05-16T04:49:36.938Z"}},{"_id":{"$oid":"6a07f7605175f779df23d1b3"},"deleted":false,"normalizedName":"quseir station","__v":0,"aliases":[],"coordinates":{"type":"Point","coordinates":[34.277,26.103]},"country":"Egypt","createdAt":{"$date":"2026-05-16T04:49:36.938Z"},"name":"Quseir Station","priority":0,"status":"active","timezone":"Africa/Cairo","updatedAt":{"$date":"2026-05-16T04:49:36.938Z"}},{"_id":{"$oid":"6a07f7605175f779df23d1b4"},"normalizedName":"marsa alam station","deleted":false,"__v":0,"aliases":[],"coordinates":{"type":"Point","coordinates":[34.89,25.067]},"country":"Egypt","createdAt":{"$date":"2026-05-16T04:49:36.938Z"},"name":"Marsa Alam Station","priority":0,"status":"active","timezone":"Africa/Cairo","updatedAt":{"$date":"2026-05-16T04:49:36.938Z"}},{"_id":{"$oid":"6a07f7605175f779df23d1b5"},"deleted":false,"normalizedName":"shalateen station","__v":0,"aliases":[],"coordinates":{"type":"Point","coordinates":[35.56,23.135]},"country":"Egypt","createdAt":{"$date":"2026-05-16T04:49:36.938Z"},"name":"Shalateen Station","priority":0,"status":"active","timezone":"Africa/Cairo","updatedAt":{"$date":"2026-05-16T04:49:36.938Z"}},{"_id":{"$oid":"6a07f7605175f779df23d1b6"},"normalizedName":"abu simbel station","deleted":false,"__v":0,"aliases":[],"coordinates":{"type":"Point","coordinates":[31.625,22.337]},"country":"Egypt","createdAt":{"$date":"2026-05-16T04:49:36.938Z"},"name":"Abu Simbel Station","priority":0,"status":"active","timezone":"Africa/Cairo","updatedAt":{"$date":"2026-05-16T04:49:36.938Z"}},{"_id":{"$oid":"6a07f7605175f779df23d1b7"},"deleted":false,"normalizedName":"kom ombo station","__v":0,"aliases":[],"coordinates":{"type":"Point","coordinates":[32.939,24.452]},"country":"Egypt","createdAt":{"$date":"2026-05-16T04:49:36.938Z"},"name":"Kom Ombo Station","priority":0,"status":"active","timezone":"Africa/Cairo","updatedAt":{"$date":"2026-05-16T04:49:36.938Z"}},{"_id":{"$oid":"6a07f7605175f779df23d1b8"},"normalizedName":"edfu station","deleted":false,"__v":0,"aliases":[],"coordinates":{"type":"Point","coordinates":[32.875,24.978]},"country":"Egypt","createdAt":{"$date":"2026-05-16T04:49:36.938Z"},"name":"Edfu Station","priority":0,"status":"active","timezone":"Africa/Cairo","updatedAt":{"$date":"2026-05-16T04:49:36.938Z"}},{"_id":{"$oid":"6a07f7605175f779df23d1b9"},"deleted":false,"normalizedName":"dendera station","__v":0,"aliases":[],"coordinates":{"type":"Point","coordinates":[32.655,26.14]},"country":"Egypt","createdAt":{"$date":"2026-05-16T04:49:36.938Z"},"name":"Dendera Station","priority":0,"status":"active","timezone":"Africa/Cairo","updatedAt":{"$date":"2026-05-16T04:49:36.938Z"}},{"_id":{"$oid":"6a07f7605175f779df23d1ba"},"normalizedName":"armant station","deleted":false,"__v":0,"aliases":[],"coordinates":{"type":"Point","coordinates":[32.559,25.619]},"country":"Egypt","createdAt":{"$date":"2026-05-16T04:49:36.938Z"},"name":"Armant Station","priority":0,"status":"active","timezone":"Africa/Cairo","updatedAt":{"$date":"2026-05-16T04:49:36.938Z"}},{"_id":{"$oid":"6a07f7605175f779df23d1bb"},"deleted":false,"normalizedName":"west luxor station","__v":0,"aliases":[],"coordinates":{"type":"Point","coordinates":[32.605,25.699]},"country":"Egypt","createdAt":{"$date":"2026-05-16T04:49:36.938Z"},"name":"West Luxor Station","priority":0,"status":"active","timezone":"Africa/Cairo","updatedAt":{"$date":"2026-05-16T04:49:36.938Z"}},{"_id":{"$oid":"6a07f7605175f779df23d1bc"},"normalizedName":"new valley station","deleted":false,"__v":0,"aliases":[],"coordinates":{"type":"Point","coordinates":[30.541,25.451]},"country":"Egypt","createdAt":{"$date":"2026-05-16T04:49:36.938Z"},"name":"New Valley Station","priority":0,"status":"active","timezone":"Africa/Cairo","updatedAt":{"$date":"2026-05-16T04:49:36.938Z"}},{"_id":{"$oid":"6a07f7605175f779df23d1bd"},"deleted":false,"normalizedName":"dakhla station","__v":0,"aliases":[],"coordinates":{"type":"Point","coordinates":[29.046,25.517]},"country":"Egypt","createdAt":{"$date":"2026-05-16T04:49:36.938Z"},"name":"Dakhla Station","priority":0,"status":"active","timezone":"Africa/Cairo","updatedAt":{"$date":"2026-05-16T04:49:36.938Z"}},{"_id":{"$oid":"6a07f7a35175f779df23d1be"},"normalizedName":"tamiya station","deleted":false,"__v":0,"aliases":[],"coordinates":{"type":"Point","coordinates":[30.961,29.476]},"country":"Egypt","createdAt":{"$date":"2026-05-16T04:50:43.099Z"},"name":"Tamiya Station","priority":0,"status":"active","timezone":"Africa/Cairo","updatedAt":{"$date":"2026-05-16T04:50:43.099Z"}},{"_id":{"$oid":"6a07f7a35175f779df23d1bf"},"deleted":false,"normalizedName":"sanurs station","__v":0,"aliases":[],"coordinates":{"type":"Point","coordinates":[30.916,29.352]},"country":"Egypt","createdAt":{"$date":"2026-05-16T04:50:43.099Z"},"name":"Sanurs Station","priority":0,"status":"active","timezone":"Africa/Cairo","updatedAt":{"$date":"2026-05-16T04:50:43.099Z"}},{"_id":{"$oid":"6a07f7a35175f779df23d1c0"},"normalizedName":"nasser station","deleted":false,"__v":0,"aliases":[],"coordinates":{"type":"Point","coordinates":[31.146,29.198]},"country":"Egypt","createdAt":{"$date":"2026-05-16T04:50:43.099Z"},"name":"Nasser Station","priority":0,"status":"active","timezone":"Africa/Cairo","updatedAt":{"$date":"2026-05-16T04:50:43.099Z"}},{"_id":{"$oid":"6a07f7a35175f779df23d1c1"},"deleted":false,"normalizedName":"al wasta station","__v":0,"aliases":[],"coordinates":{"type":"Point","coordinates":[31.205,29.334]},"country":"Egypt","createdAt":{"$date":"2026-05-16T04:50:43.099Z"},"name":"Al Wasta Station","priority":0,"status":"active","timezone":"Africa/Cairo","updatedAt":{"$date":"2026-05-16T04:50:43.099Z"}},{"_id":{"$oid":"6a07f7a35175f779df23d1c2"},"normalizedName":"maghagha station","deleted":false,"__v":0,"aliases":[],"coordinates":{"type":"Point","coordinates":[30.83,28.639]},"country":"Egypt","createdAt":{"$date":"2026-05-16T04:50:43.099Z"},"name":"Maghagha Station","priority":0,"status":"active","timezone":"Africa/Cairo","updatedAt":{"$date":"2026-05-16T04:50:43.099Z"}},{"_id":{"$oid":"6a07f7a35175f779df23d1c3"},"deleted":false,"normalizedName":"beni mazar station","__v":0,"aliases":[],"coordinates":{"type":"Point","coordinates":[30.803,28.49]},"country":"Egypt","createdAt":{"$date":"2026-05-16T04:50:43.099Z"},"name":"Beni Mazar Station","priority":0,"status":"active","timezone":"Africa/Cairo","updatedAt":{"$date":"2026-05-16T04:50:43.099Z"}},{"_id":{"$oid":"6a07f7a35175f779df23d1c4"},"normalizedName":"matay station","deleted":false,"__v":0,"aliases":[],"coordinates":{"type":"Point","coordinates":[30.742,28.422]},"country":"Egypt","createdAt":{"$date":"2026-05-16T04:50:43.099Z"},"name":"Matay Station","priority":0,"status":"active","timezone":"Africa/Cairo","updatedAt":{"$date":"2026-05-16T04:50:43.099Z"}},{"_id":{"$oid":"6a07f7a35175f779df23d1c5"},"deleted":false,"normalizedName":"minya west station","__v":0,"aliases":[],"coordinates":{"type":"Point","coordinates":[30.75,28.1]},"country":"Egypt","createdAt":{"$date":"2026-05-16T04:50:43.099Z"},"name":"Minya West Station","priority":0,"status":"active","timezone":"Africa/Cairo","updatedAt":{"$date":"2026-05-16T04:50:43.099Z"}},{"_id":{"$oid":"6a07f7a35175f779df23d1c6"},"normalizedName":"samalut station","deleted":false,"__v":0,"aliases":[],"coordinates":{"type":"Point","coordinates":[30.71,28.31]},"country":"Egypt","createdAt":{"$date":"2026-05-16T04:50:43.099Z"},"name":"Samalut Station","priority":0,"status":"active","timezone":"Africa/Cairo","updatedAt":{"$date":"2026-05-16T04:50:43.099Z"}},{"_id":{"$oid":"6a07f7a35175f779df23d1c7"},"normalizedName":"deir mawas station","deleted":false,"__v":0,"aliases":[],"coordinates":{"type":"Point","coordinates":[30.849,27.641]},"country":"Egypt","createdAt":{"$date":"2026-05-16T04:50:43.099Z"},"name":"Deir Mawas Station","priority":0,"status":"active","timezone":"Africa/Cairo","updatedAt":{"$date":"2026-05-16T04:50:43.099Z"}},{"_id":{"$oid":"6a07f7a35175f779df23d1c8"},"deleted":false,"normalizedName":"abu qurqas station","__v":0,"aliases":[],"coordinates":{"type":"Point","coordinates":[30.842,27.93]},"country":"Egypt","createdAt":{"$date":"2026-05-16T04:50:43.099Z"},"name":"Abu Qurqas Station","priority":0,"status":"active","timezone":"Africa/Cairo","updatedAt":{"$date":"2026-05-16T04:50:43.099Z"}},{"_id":{"$oid":"6a07f7a35175f779df23d1c9"},"normalizedName":"dayrout station","deleted":false,"__v":0,"aliases":[],"coordinates":{"type":"Point","coordinates":[31.249,27.561]},"country":"Egypt","createdAt":{"$date":"2026-05-16T04:50:43.099Z"},"name":"Dayrout Station","priority":0,"status":"active","timezone":"Africa/Cairo","updatedAt":{"$date":"2026-05-16T04:50:43.099Z"}},{"_id":{"$oid":"6a07f7a35175f779df23d1ca"},"deleted":false,"normalizedName":"manfalut station","__v":0,"aliases":[],"coordinates":{"type":"Point","coordinates":[31.034,27.313]},"country":"Egypt","createdAt":{"$date":"2026-05-16T04:50:43.099Z"},"name":"Manfalut Station","priority":0,"status":"active","timezone":"Africa/Cairo","updatedAt":{"$date":"2026-05-16T04:50:43.099Z"}},{"_id":{"$oid":"6a07f7a35175f779df23d1cb"},"normalizedName":"abu tig station","deleted":false,"__v":0,"aliases":[],"coordinates":{"type":"Point","coordinates":[31.157,27.045]},"country":"Egypt","createdAt":{"$date":"2026-05-16T04:50:43.099Z"},"name":"Abu Tig Station","priority":0,"status":"active","timezone":"Africa/Cairo","updatedAt":{"$date":"2026-05-16T04:50:43.099Z"}},{"_id":{"$oid":"6a07f7a35175f779df23d1cc"},"deleted":false,"normalizedName":"assiut west station","__v":0,"aliases":[],"coordinates":{"type":"Point","coordinates":[31.183,27.18]},"country":"Egypt","createdAt":{"$date":"2026-05-16T04:50:43.099Z"},"name":"Assiut West Station","priority":0,"status":"active","timezone":"Africa/Cairo","updatedAt":{"$date":"2026-05-16T04:50:43.099Z"}},{"_id":{"$oid":"6a07f7a35175f779df23d1cd"},"normalizedName":"sohag west station","deleted":false,"__v":0,"aliases":[],"coordinates":{"type":"Point","coordinates":[31.244,26.562]},"country":"Egypt","createdAt":{"$date":"2026-05-16T04:50:43.099Z"},"name":"Sohag West Station","priority":0,"status":"active","timezone":"Africa/Cairo","updatedAt":{"$date":"2026-05-16T04:50:43.099Z"}},{"_id":{"$oid":"6a07f7a35175f779df23d1ce"},"normalizedName":"maragha station","deleted":false,"__v":0,"aliases":[],"coordinates":{"type":"Point","coordinates":[31.45,26.52]},"country":"Egypt","createdAt":{"$date":"2026-05-16T04:50:43.099Z"},"name":"Maragha Station","priority":0,"status":"active","timezone":"Africa/Cairo","updatedAt":{"$date":"2026-05-16T04:50:43.099Z"}},{"_id":{"$oid":"6a07f7a35175f779df23d1cf"},"deleted":false,"normalizedName":"girga station","__v":0,"aliases":[],"coordinates":{"type":"Point","coordinates":[31.893,26.33]},"country":"Egypt","createdAt":{"$date":"2026-05-16T04:50:43.099Z"},"name":"Girga Station","priority":0,"status":"active","timezone":"Africa/Cairo","updatedAt":{"$date":"2026-05-16T04:50:43.099Z"}},{"_id":{"$oid":"6a07f7a35175f779df23d1d0"},"deleted":false,"normalizedName":"qena north station","__v":0,"aliases":[],"coordinates":{"type":"Point","coordinates":[32.718,26.174]},"country":"Egypt","createdAt":{"$date":"2026-05-16T04:50:43.099Z"},"name":"Qena North Station","priority":0,"status":"active","timezone":"Africa/Cairo","updatedAt":{"$date":"2026-05-16T04:50:43.099Z"}},{"_id":{"$oid":"6a07f7c15175f779df23d1d1"},"normalizedName":"edfu west station","deleted":false,"__v":0,"aliases":[],"coordinates":{"type":"Point","coordinates":[32.876,24.977]},"country":"Egypt","createdAt":{"$date":"2026-05-16T04:51:13.203Z"},"name":"Edfu West Station","priority":0,"status":"active","timezone":"Africa/Cairo","updatedAt":{"$date":"2026-05-16T04:51:13.203Z"}},{"_id":{"$oid":"6a07f7c15175f779df23d1d2"},"deleted":false,"normalizedName":"kom ombo west station","__v":0,"aliases":[],"coordinates":{"type":"Point","coordinates":[32.94,24.452]},"country":"Egypt","createdAt":{"$date":"2026-05-16T04:51:13.203Z"},"name":"Kom Ombo West Station","priority":0,"status":"active","timezone":"Africa/Cairo","updatedAt":{"$date":"2026-05-16T04:51:13.203Z"}},{"_id":{"$oid":"6a07f7c15175f779df23d1d3"},"normalizedName":"aswan high dam station","deleted":false,"__v":0,"aliases":[],"coordinates":{"type":"Point","coordinates":[32.879,23.972]},"country":"Egypt","createdAt":{"$date":"2026-05-16T04:51:13.203Z"},"name":"Aswan High Dam Station","priority":0,"status":"active","timezone":"Africa/Cairo","updatedAt":{"$date":"2026-05-16T04:51:13.203Z"}},{"_id":{"$oid":"6a07f7c15175f779df23d1d4"},"deleted":false,"normalizedName":"new aswan station","__v":0,"aliases":[],"coordinates":{"type":"Point","coordinates":[32.865,24.15]},"country":"Egypt","createdAt":{"$date":"2026-05-16T04:51:13.203Z"},"name":"New Aswan Station","priority":0,"status":"active","timezone":"Africa/Cairo","updatedAt":{"$date":"2026-05-16T04:51:13.203Z"}},{"_id":{"$oid":"6a07f7c15175f779df23d1d5"},"normalizedName":"abu simbel north station","deleted":false,"__v":0,"aliases":[],"coordinates":{"type":"Point","coordinates":[31.625,22.337]},"country":"Egypt","createdAt":{"$date":"2026-05-16T04:51:13.203Z"},"name":"Abu Simbel North Station","priority":0,"status":"active","timezone":"Africa/Cairo","updatedAt":{"$date":"2026-05-16T04:51:13.203Z"}},{"_id":{"$oid":"6a07f7c15175f779df23d1d6"},"deleted":false,"normalizedName":"abu simbel south station","__v":0,"aliases":[],"coordinates":{"type":"Point","coordinates":[31.61,22.32]},"country":"Egypt","createdAt":{"$date":"2026-05-16T04:51:13.203Z"},"name":"Abu Simbel South Station","priority":0,"status":"active","timezone":"Africa/Cairo","updatedAt":{"$date":"2026-05-16T04:51:13.203Z"}},{"_id":{"$oid":"6a07f7c15175f779df23d1d7"},"normalizedName":"sharm el sheikh station","deleted":false,"__v":0,"aliases":[],"coordinates":{"type":"Point","coordinates":[34.329,27.915]},"country":"Egypt","createdAt":{"$date":"2026-05-16T04:51:13.203Z"},"name":"Sharm El Sheikh Station","priority":0,"status":"active","timezone":"Africa/Cairo","updatedAt":{"$date":"2026-05-16T04:51:13.203Z"}},{"_id":{"$oid":"6a07f7c15175f779df23d1d8"},"deleted":false,"normalizedName":"dahab station","__v":0,"aliases":[],"coordinates":{"type":"Point","coordinates":[34.515,28.491]},"country":"Egypt","createdAt":{"$date":"2026-05-16T04:51:13.203Z"},"name":"Dahab Station","priority":0,"status":"active","timezone":"Africa/Cairo","updatedAt":{"$date":"2026-05-16T04:51:13.203Z"}},{"_id":{"$oid":"6a07f7c15175f779df23d1d9"},"normalizedName":"nuweiba station","deleted":false,"__v":0,"aliases":[],"coordinates":{"type":"Point","coordinates":[34.663,29.046]},"country":"Egypt","createdAt":{"$date":"2026-05-16T04:51:13.203Z"},"name":"Nuweiba Station","priority":0,"status":"active","timezone":"Africa/Cairo","updatedAt":{"$date":"2026-05-16T04:51:13.203Z"}},{"_id":{"$oid":"6a07f7c15175f779df23d1da"},"deleted":false,"normalizedName":"taba station","__v":0,"aliases":[],"coordinates":{"type":"Point","coordinates":[34.888,29.497]},"country":"Egypt","createdAt":{"$date":"2026-05-16T04:51:13.203Z"},"name":"Taba Station","priority":0,"status":"active","timezone":"Africa/Cairo","updatedAt":{"$date":"2026-05-16T04:51:13.203Z"}},{"_id":{"$oid":"6a07f7c15175f779df23d1db"},"normalizedName":"saint catherine station","deleted":false,"__v":0,"aliases":[],"coordinates":{"type":"Point","coordinates":[33.949,28.556]},"country":"Egypt","createdAt":{"$date":"2026-05-16T04:51:13.203Z"},"name":"Saint Catherine Station","priority":0,"status":"active","timezone":"Africa/Cairo","updatedAt":{"$date":"2026-05-16T04:51:13.203Z"}},{"_id":{"$oid":"6a07f7c15175f779df23d1dc"},"deleted":false,"normalizedName":"arish south station","__v":0,"aliases":[],"coordinates":{"type":"Point","coordinates":[33.82,31.12]},"country":"Egypt","createdAt":{"$date":"2026-05-16T04:51:13.203Z"},"name":"Arish South Station","priority":0,"status":"active","timezone":"Africa/Cairo","updatedAt":{"$date":"2026-05-16T04:51:13.203Z"}},{"_id":{"$oid":"6a07f7c15175f779df23d1dd"},"normalizedName":"bir el abd east station","deleted":false,"__v":0,"aliases":[],"coordinates":{"type":"Point","coordinates":[33.12,31.01]},"country":"Egypt","createdAt":{"$date":"2026-05-16T04:51:13.203Z"},"name":"Bir El Abd East Station","priority":0,"status":"active","timezone":"Africa/Cairo","updatedAt":{"$date":"2026-05-16T04:51:13.203Z"}},{"_id":{"$oid":"6a07f7c15175f779df23d1de"},"deleted":false,"normalizedName":"el qantara central station","__v":0,"aliases":[],"coordinates":{"type":"Point","coordinates":[32.305,30.82]},"country":"Egypt","createdAt":{"$date":"2026-05-16T04:51:13.203Z"},"name":"El Qantara Central Station","priority":0,"status":"active","timezone":"Africa/Cairo","updatedAt":{"$date":"2026-05-16T04:51:13.203Z"}},{"_id":{"$oid":"6a07f7c15175f779df23d1df"},"normalizedName":"ismailia central station","deleted":false,"__v":0,"aliases":[],"coordinates":{"type":"Point","coordinates":[32.263,30.596]},"country":"Egypt","createdAt":{"$date":"2026-05-16T04:51:13.203Z"},"name":"Ismailia Central Station","priority":0,"status":"active","timezone":"Africa/Cairo","updatedAt":{"$date":"2026-05-16T04:51:13.203Z"}},{"_id":{"$oid":"6a07f7c15175f779df23d1e0"},"deleted":false,"normalizedName":"fayed east station","__v":0,"aliases":[],"coordinates":{"type":"Point","coordinates":[32.3,30.36]},"country":"Egypt","createdAt":{"$date":"2026-05-16T04:51:13.203Z"},"name":"Fayed East Station","priority":0,"status":"active","timezone":"Africa/Cairo","updatedAt":{"$date":"2026-05-16T04:51:13.203Z"}},{"_id":{"$oid":"6a07f7c15175f779df23d1e1"},"normalizedName":"suez city station","deleted":false,"__v":0,"aliases":[],"coordinates":{"type":"Point","coordinates":[32.5498,29.9668]},"country":"Egypt","createdAt":{"$date":"2026-05-16T04:51:13.203Z"},"name":"Suez City Station","priority":0,"status":"active","timezone":"Africa/Cairo","updatedAt":{"$date":"2026-05-16T04:51:13.203Z"}},{"_id":{"$oid":"6a07f7c15175f779df23d1e2"},"deleted":false,"normalizedName":"ain sokhna port station","__v":0,"aliases":[],"coordinates":{"type":"Point","coordinates":[32.355,29.6]},"country":"Egypt","createdAt":{"$date":"2026-05-16T04:51:13.203Z"},"name":"Ain Sokhna Port Station","priority":0,"status":"active","timezone":"Africa/Cairo","updatedAt":{"$date":"2026-05-16T04:51:13.203Z"}},{"_id":{"$oid":"6a07f7c15175f779df23d1e3"},"normalizedName":"zafarana station","deleted":false,"__v":0,"aliases":[],"coordinates":{"type":"Point","coordinates":[32.645,29.15]},"country":"Egypt","createdAt":{"$date":"2026-05-16T04:51:13.203Z"},"name":"Zafarana Station","priority":0,"status":"active","timezone":"Africa/Cairo","updatedAt":{"$date":"2026-05-16T04:51:13.203Z"}},{"_id":{"$oid":"6a07f7c15175f779df23d1e4"},"deleted":false,"normalizedName":"ras gharib north station","__v":0,"aliases":[],"coordinates":{"type":"Point","coordinates":[33.1,28.42]},"country":"Egypt","createdAt":{"$date":"2026-05-16T04:51:13.203Z"},"name":"Ras Gharib North Station","priority":0,"status":"active","timezone":"Africa/Cairo","updatedAt":{"$date":"2026-05-16T04:51:13.203Z"}},{"_id":{"$oid":"6a07f7c15175f779df23d1e5"},"normalizedName":"hurghada airport station","deleted":false,"__v":0,"aliases":[],"coordinates":{"type":"Point","coordinates":[33.794,27.178]},"country":"Egypt","createdAt":{"$date":"2026-05-16T04:51:13.203Z"},"name":"Hurghada Airport Station","priority":0,"status":"active","timezone":"Africa/Cairo","updatedAt":{"$date":"2026-05-16T04:51:13.203Z"}},{"_id":{"$oid":"6a07f7d45175f779df23d1e6"},"normalizedName":"hurghada south station","deleted":false,"__v":0,"aliases":[],"coordinates":{"type":"Point","coordinates":[33.85,27.15]},"country":"Egypt","createdAt":{"$date":"2026-05-16T04:51:32.837Z"},"name":"Hurghada South Station","priority":0,"status":"active","timezone":"Africa/Cairo","updatedAt":{"$date":"2026-05-16T04:51:32.837Z"}},{"_id":{"$oid":"6a07f7d45175f779df23d1e7"},"deleted":false,"normalizedName":"safaga port station","__v":0,"aliases":[],"coordinates":{"type":"Point","coordinates":[33.935,26.733]},"country":"Egypt","createdAt":{"$date":"2026-05-16T04:51:32.837Z"},"name":"Safaga Port Station","priority":0,"status":"active","timezone":"Africa/Cairo","updatedAt":{"$date":"2026-05-16T04:51:32.837Z"}},{"_id":{"$oid":"6a07f7d45175f779df23d1e8"},"normalizedName":"el quseir north station","deleted":false,"__v":0,"aliases":[],"coordinates":{"type":"Point","coordinates":[34.275,26.12]},"country":"Egypt","createdAt":{"$date":"2026-05-16T04:51:32.837Z"},"name":"El Quseir North Station","priority":0,"status":"active","timezone":"Africa/Cairo","updatedAt":{"$date":"2026-05-16T04:51:32.837Z"}},{"_id":{"$oid":"6a07f7d45175f779df23d1e9"},"deleted":false,"normalizedName":"el quseir south station","__v":0,"aliases":[],"coordinates":{"type":"Point","coordinates":[34.285,26.09]},"country":"Egypt","createdAt":{"$date":"2026-05-16T04:51:32.837Z"},"name":"El Quseir South Station","priority":0,"status":"active","timezone":"Africa/Cairo","updatedAt":{"$date":"2026-05-16T04:51:32.837Z"}},{"_id":{"$oid":"6a07f7d45175f779df23d1ea"},"normalizedName":"marsa alam north station","deleted":false,"__v":0,"aliases":[],"coordinates":{"type":"Point","coordinates":[34.9,25.12]},"country":"Egypt","createdAt":{"$date":"2026-05-16T04:51:32.837Z"},"name":"Marsa Alam North Station","priority":0,"status":"active","timezone":"Africa/Cairo","updatedAt":{"$date":"2026-05-16T04:51:32.837Z"}},{"_id":{"$oid":"6a07f7d45175f779df23d1eb"},"deleted":false,"normalizedName":"marsa alam south station","__v":0,"aliases":[],"coordinates":{"type":"Point","coordinates":[34.91,25.05]},"country":"Egypt","createdAt":{"$date":"2026-05-16T04:51:32.837Z"},"name":"Marsa Alam South Station","priority":0,"status":"active","timezone":"Africa/Cairo","updatedAt":{"$date":"2026-05-16T04:51:32.837Z"}},{"_id":{"$oid":"6a07f7d45175f779df23d1ec"},"normalizedName":"shalateen north station","deleted":false,"__v":0,"aliases":[],"coordinates":{"type":"Point","coordinates":[35.55,23.18]},"country":"Egypt","createdAt":{"$date":"2026-05-16T04:51:32.837Z"},"name":"Shalateen North Station","priority":0,"status":"active","timezone":"Africa/Cairo","updatedAt":{"$date":"2026-05-16T04:51:32.837Z"}},{"_id":{"$oid":"6a07f7d45175f779df23d1ed"},"deleted":false,"normalizedName":"shalateen south station","__v":0,"aliases":[],"coordinates":{"type":"Point","coordinates":[35.57,23.1]},"country":"Egypt","createdAt":{"$date":"2026-05-16T04:51:32.837Z"},"name":"Shalateen South Station","priority":0,"status":"active","timezone":"Africa/Cairo","updatedAt":{"$date":"2026-05-16T04:51:32.837Z"}},{"_id":{"$oid":"6a07f7d45175f779df23d1ee"},"normalizedName":"abu ramad station","deleted":false,"__v":0,"aliases":[],"coordinates":{"type":"Point","coordinates":[35.1,22.8]},"country":"Egypt","createdAt":{"$date":"2026-05-16T04:51:32.837Z"},"name":"Abu Ramad Station","priority":0,"status":"active","timezone":"Africa/Cairo","updatedAt":{"$date":"2026-05-16T04:51:32.837Z"}},{"_id":{"$oid":"6a07f7d45175f779df23d1ef"},"deleted":false,"normalizedName":"halaib station","__v":0,"aliases":[],"coordinates":{"type":"Point","coordinates":[36.5,22.2]},"country":"Egypt","createdAt":{"$date":"2026-05-16T04:51:32.837Z"},"name":"Halaib Station","priority":0,"status":"active","timezone":"Africa/Cairo","updatedAt":{"$date":"2026-05-16T04:51:32.837Z"}},{"_id":{"$oid":"6a07f7d45175f779df23d1f0"},"normalizedName":"asyut central station","deleted":false,"__v":0,"aliases":[],"coordinates":{"type":"Point","coordinates":[31.1837,27.1828]},"country":"Egypt","createdAt":{"$date":"2026-05-16T04:51:32.837Z"},"name":"Asyut Central Station","priority":0,"status":"active","timezone":"Africa/Cairo","updatedAt":{"$date":"2026-05-16T04:51:32.837Z"}},{"_id":{"$oid":"6a07f7d45175f779df23d1f1"},"deleted":false,"normalizedName":"asyut north station","__v":0,"aliases":[],"coordinates":{"type":"Point","coordinates":[31.2,27.25]},"country":"Egypt","createdAt":{"$date":"2026-05-16T04:51:32.837Z"},"name":"Asyut North Station","priority":0,"status":"active","timezone":"Africa/Cairo","updatedAt":{"$date":"2026-05-16T04:51:32.837Z"}},{"_id":{"$oid":"6a07f7d45175f779df23d1f2"},"normalizedName":"asyut south station","deleted":false,"__v":0,"aliases":[],"coordinates":{"type":"Point","coordinates":[31.17,27.1]},"country":"Egypt","createdAt":{"$date":"2026-05-16T04:51:32.837Z"},"name":"Asyut South Station","priority":0,"status":"active","timezone":"Africa/Cairo","updatedAt":{"$date":"2026-05-16T04:51:32.837Z"}},{"_id":{"$oid":"6a07f7d45175f779df23d1f3"},"deleted":false,"normalizedName":"dairut west station","__v":0,"aliases":[],"coordinates":{"type":"Point","coordinates":[31.25,27.55]},"country":"Egypt","createdAt":{"$date":"2026-05-16T04:51:32.837Z"},"name":"Dairut West Station","priority":0,"status":"active","timezone":"Africa/Cairo","updatedAt":{"$date":"2026-05-16T04:51:32.837Z"}},{"_id":{"$oid":"6a07f7d45175f779df23d1f4"},"normalizedName":"dairut east station","deleted":false,"__v":0,"aliases":[],"coordinates":{"type":"Point","coordinates":[31.27,27.56]},"country":"Egypt","createdAt":{"$date":"2026-05-16T04:51:32.837Z"},"name":"Dairut East Station","priority":0,"status":"active","timezone":"Africa/Cairo","updatedAt":{"$date":"2026-05-16T04:51:32.837Z"}},{"_id":{"$oid":"6a07f7d45175f779df23d1f5"},"deleted":false,"normalizedName":"sohag central station","__v":0,"aliases":[],"coordinates":{"type":"Point","coordinates":[31.2337,26.5569]},"country":"Egypt","createdAt":{"$date":"2026-05-16T04:51:32.837Z"},"name":"Sohag Central Station","priority":0,"status":"active","timezone":"Africa/Cairo","updatedAt":{"$date":"2026-05-16T04:51:32.837Z"}},{"_id":{"$oid":"6a07f7d45175f779df23d1f6"},"normalizedName":"sohag north station","deleted":false,"__v":0,"aliases":[],"coordinates":{"type":"Point","coordinates":[31.26,26.6]},"country":"Egypt","createdAt":{"$date":"2026-05-16T04:51:32.837Z"},"name":"Sohag North Station","priority":0,"status":"active","timezone":"Africa/Cairo","updatedAt":{"$date":"2026-05-16T04:51:32.837Z"}},{"_id":{"$oid":"6a07f7d45175f779df23d1f7"},"deleted":false,"normalizedName":"sohag south station","__v":0,"aliases":[],"coordinates":{"type":"Point","coordinates":[31.21,26.52]},"country":"Egypt","createdAt":{"$date":"2026-05-16T04:51:32.837Z"},"name":"Sohag South Station","priority":0,"status":"active","timezone":"Africa/Cairo","updatedAt":{"$date":"2026-05-16T04:51:32.837Z"}},{"_id":{"$oid":"6a07f7d45175f779df23d1f8"},"normalizedName":"akhtaab station","deleted":false,"__v":0,"aliases":[],"coordinates":{"type":"Point","coordinates":[31.72,26.55]},"country":"Egypt","createdAt":{"$date":"2026-05-16T04:51:32.837Z"},"name":"Akhtaab Station","priority":0,"status":"active","timezone":"Africa/Cairo","updatedAt":{"$date":"2026-05-16T04:51:32.837Z"}},{"_id":{"$oid":"6a07f7d45175f779df23d1f9"},"deleted":false,"normalizedName":"balyana station","__v":0,"aliases":[],"coordinates":{"type":"Point","coordinates":[32,26.23]},"country":"Egypt","createdAt":{"$date":"2026-05-16T04:51:32.837Z"},"name":"Balyana Station","priority":0,"status":"active","timezone":"Africa/Cairo","updatedAt":{"$date":"2026-05-16T04:51:32.837Z"}},{"_id":{"$oid":"6a07f7d45175f779df23d1fa"},"normalizedName":"qena east station","deleted":false,"__v":0,"aliases":[],"coordinates":{"type":"Point","coordinates":[32.75,26.17]},"country":"Egypt","createdAt":{"$date":"2026-05-16T04:51:32.837Z"},"name":"Qena East Station","priority":0,"status":"active","timezone":"Africa/Cairo","updatedAt":{"$date":"2026-05-16T04:51:32.837Z"}},{"_id":{"$oid":"6a07f7d45175f779df23d1fb"},"deleted":false,"normalizedName":"qena west station","__v":0,"aliases":[],"coordinates":{"type":"Point","coordinates":[32.68,26.16]},"country":"Egypt","createdAt":{"$date":"2026-05-16T04:51:32.837Z"},"name":"Qena West Station","priority":0,"status":"active","timezone":"Africa/Cairo","updatedAt":{"$date":"2026-05-16T04:51:32.837Z"}},{"_id":{"$oid":"6a07f7d45175f779df23d1fc"},"normalizedName":"luxor east bank station","deleted":false,"__v":0,"aliases":[],"coordinates":{"type":"Point","coordinates":[32.65,25.7]},"country":"Egypt","createdAt":{"$date":"2026-05-16T04:51:32.837Z"},"name":"Luxor East Bank Station","priority":0,"status":"active","timezone":"Africa/Cairo","updatedAt":{"$date":"2026-05-16T04:51:32.837Z"}},{"_id":{"$oid":"6a07f7d45175f779df23d1fd"},"deleted":false,"normalizedName":"luxor west bank station","__v":0,"aliases":[],"coordinates":{"type":"Point","coordinates":[32.6,25.71]},"country":"Egypt","createdAt":{"$date":"2026-05-16T04:51:32.837Z"},"name":"Luxor West Bank Station","priority":0,"status":"active","timezone":"Africa/Cairo","updatedAt":{"$date":"2026-05-16T04:51:32.837Z"}},{"_id":{"$oid":"6a07f7d45175f779df23d1fe"},"normalizedName":"medinet habu station","deleted":false,"__v":0,"aliases":[],"coordinates":{"type":"Point","coordinates":[32.606,25.72]},"country":"Egypt","createdAt":{"$date":"2026-05-16T04:51:32.837Z"},"name":"Medinet Habu Station","priority":0,"status":"active","timezone":"Africa/Cairo","updatedAt":{"$date":"2026-05-16T04:51:32.837Z"}},{"_id":{"$oid":"6a07f7d45175f779df23d1ff"},"deleted":false,"normalizedName":"esna north station","__v":0,"aliases":[],"coordinates":{"type":"Point","coordinates":[32.56,25.31]},"country":"Egypt","createdAt":{"$date":"2026-05-16T04:51:32.837Z"},"name":"Esna North Station","priority":0,"status":"active","timezone":"Africa/Cairo","updatedAt":{"$date":"2026-05-16T04:51:32.837Z"}},{"_id":{"$oid":"6a07f7d45175f779df23d200"},"normalizedName":"esna south station","deleted":false,"__v":0,"aliases":[],"coordinates":{"type":"Point","coordinates":[32.54,25.28]},"country":"Egypt","createdAt":{"$date":"2026-05-16T04:51:32.837Z"},"name":"Esna South Station","priority":0,"status":"active","timezone":"Africa/Cairo","updatedAt":{"$date":"2026-05-16T04:51:32.837Z"}},{"_id":{"$oid":"6a07f7d45175f779df23d201"},"deleted":false,"normalizedName":"edfu central station","__v":0,"aliases":[],"coordinates":{"type":"Point","coordinates":[32.87,24.98]},"country":"Egypt","createdAt":{"$date":"2026-05-16T04:51:32.837Z"},"name":"Edfu Central Station","priority":0,"status":"active","timezone":"Africa/Cairo","updatedAt":{"$date":"2026-05-16T04:51:32.837Z"}},{"_id":{"$oid":"6a07f7d45175f779df23d202"},"normalizedName":"edfu south station","deleted":false,"__v":0,"aliases":[],"coordinates":{"type":"Point","coordinates":[32.88,24.95]},"country":"Egypt","createdAt":{"$date":"2026-05-16T04:51:32.837Z"},"name":"Edfu South Station","priority":0,"status":"active","timezone":"Africa/Cairo","updatedAt":{"$date":"2026-05-16T04:51:32.837Z"}},{"_id":{"$oid":"6a07f7d45175f779df23d203"},"deleted":false,"normalizedName":"kom ombo east station","__v":0,"aliases":[],"coordinates":{"type":"Point","coordinates":[32.95,24.46]},"country":"Egypt","createdAt":{"$date":"2026-05-16T04:51:32.837Z"},"name":"Kom Ombo East Station","priority":0,"status":"active","timezone":"Africa/Cairo","updatedAt":{"$date":"2026-05-16T04:51:32.837Z"}},{"_id":{"$oid":"6a07f7d45175f779df23d204"},"normalizedName":"aswan north station","deleted":false,"__v":0,"aliases":[],"coordinates":{"type":"Point","coordinates":[32.9,24.1]},"country":"Egypt","createdAt":{"$date":"2026-05-16T04:51:32.837Z"},"name":"Aswan North Station","priority":0,"status":"active","timezone":"Africa/Cairo","updatedAt":{"$date":"2026-05-16T04:51:32.837Z"}},{"_id":{"$oid":"6a07f7d45175f779df23d205"},"deleted":false,"normalizedName":"aswan south station","__v":0,"aliases":[],"coordinates":{"type":"Point","coordinates":[32.88,24.05]},"country":"Egypt","createdAt":{"$date":"2026-05-16T04:51:32.837Z"},"name":"Aswan South Station","priority":0,"status":"active","timezone":"Africa/Cairo","updatedAt":{"$date":"2026-05-16T04:51:32.837Z"}},{"_id":{"$oid":"6a07f7d45175f779df23d206"},"normalizedName":"new aswan east station","deleted":false,"__v":0,"aliases":[],"coordinates":{"type":"Point","coordinates":[32.87,24.16]},"country":"Egypt","createdAt":{"$date":"2026-05-16T04:51:32.837Z"},"name":"New Aswan East Station","priority":0,"status":"active","timezone":"Africa/Cairo","updatedAt":{"$date":"2026-05-16T04:51:32.837Z"}},{"_id":{"$oid":"6a07f7d45175f779df23d207"},"deleted":false,"normalizedName":"new aswan west station","__v":0,"aliases":[],"coordinates":{"type":"Point","coordinates":[32.85,24.14]},"country":"Egypt","createdAt":{"$date":"2026-05-16T04:51:32.837Z"},"name":"New Aswan West Station","priority":0,"status":"active","timezone":"Africa/Cairo","updatedAt":{"$date":"2026-05-16T04:51:32.837Z"}},{"_id":{"$oid":"6a07f7d45175f779df23d208"},"normalizedName":"high dam east station","deleted":false,"__v":0,"aliases":[],"coordinates":{"type":"Point","coordinates":[32.89,23.98]},"country":"Egypt","createdAt":{"$date":"2026-05-16T04:51:32.837Z"},"name":"High Dam East Station","priority":0,"status":"active","timezone":"Africa/Cairo","updatedAt":{"$date":"2026-05-16T04:51:32.837Z"}},{"_id":{"$oid":"6a07f7d45175f779df23d209"},"deleted":false,"normalizedName":"high dam west station","__v":0,"aliases":[],"coordinates":{"type":"Point","coordinates":[32.87,23.96]},"country":"Egypt","createdAt":{"$date":"2026-05-16T04:51:32.837Z"},"name":"High Dam West Station","priority":0,"status":"active","timezone":"Africa/Cairo","updatedAt":{"$date":"2026-05-16T04:51:32.837Z"}},{"_id":{"$oid":"6a07f7d45175f779df23d20a"},"normalizedName":"abu simbel east station","deleted":false,"__v":0,"aliases":[],"coordinates":{"type":"Point","coordinates":[31.64,22.34]},"country":"Egypt","createdAt":{"$date":"2026-05-16T04:51:32.837Z"},"name":"Abu Simbel East Station","priority":0,"status":"active","timezone":"Africa/Cairo","updatedAt":{"$date":"2026-05-16T04:51:32.837Z"}},{"_id":{"$oid":"6a07f7d45175f779df23d20b"},"deleted":false,"normalizedName":"abu simbel west station","__v":0,"aliases":[],"coordinates":{"type":"Point","coordinates":[31.6,22.33]},"country":"Egypt","createdAt":{"$date":"2026-05-16T04:51:32.837Z"},"name":"Abu Simbel West Station","priority":0,"status":"active","timezone":"Africa/Cairo","updatedAt":{"$date":"2026-05-16T04:51:32.837Z"}},{"_id":{"$oid":"6a07f7d45175f779df23d20c"},"normalizedName":"lake nasser station","deleted":false,"__v":0,"aliases":[],"coordinates":{"type":"Point","coordinates":[31.7,22.5]},"country":"Egypt","createdAt":{"$date":"2026-05-16T04:51:32.837Z"},"name":"Lake Nasser Station","priority":0,"status":"active","timezone":"Africa/Cairo","updatedAt":{"$date":"2026-05-16T04:51:32.837Z"}},{"_id":{"$oid":"6a07f7d45175f779df23d20d"},"deleted":false,"normalizedName":"wadi halfa route station","__v":0,"aliases":[],"coordinates":{"type":"Point","coordinates":[31.8,21.8]},"country":"Egypt","createdAt":{"$date":"2026-05-16T04:51:32.837Z"},"name":"Wadi Halfa Route Station","priority":0,"status":"active","timezone":"Africa/Cairo","updatedAt":{"$date":"2026-05-16T04:51:32.837Z"}},{"_id":{"$oid":"6a07f7d45175f779df23d20e"},"normalizedName":"new cairo station","deleted":false,"__v":0,"aliases":[],"coordinates":{"type":"Point","coordinates":[31.465,30.029]},"country":"Egypt","createdAt":{"$date":"2026-05-16T04:51:32.837Z"},"name":"New Cairo Station","priority":0,"status":"active","timezone":"Africa/Cairo","updatedAt":{"$date":"2026-05-16T04:52:53.462Z"}},{"_id":{"$oid":"6a07f7d45175f779df23d20f"},"deleted":false,"normalizedName":"nasr city station","__v":0,"aliases":[],"coordinates":{"type":"Point","coordinates":[31.345,30.062]},"country":"Egypt","createdAt":{"$date":"2026-05-16T04:51:32.837Z"},"name":"Nasr City Station","priority":0,"status":"active","timezone":"Africa/Cairo","updatedAt":{"$date":"2026-05-16T04:52:53.462Z"}},{"_id":{"$oid":"6a07f7d45175f779df23d210"},"normalizedName":"heliopolis station","deleted":false,"__v":0,"aliases":[],"coordinates":{"type":"Point","coordinates":[31.336,30.093]},"country":"Egypt","createdAt":{"$date":"2026-05-16T04:51:32.837Z"},"name":"Heliopolis Station","priority":0,"status":"active","timezone":"Africa/Cairo","updatedAt":{"$date":"2026-05-16T04:52:53.462Z"}},{"_id":{"$oid":"6a07f7d45175f779df23d211"},"deleted":false,"normalizedName":"giza north station","__v":0,"aliases":[],"coordinates":{"type":"Point","coordinates":[31.205,30.05]},"country":"Egypt","createdAt":{"$date":"2026-05-16T04:51:32.837Z"},"name":"Giza North Station","priority":0,"status":"active","timezone":"Africa/Cairo","updatedAt":{"$date":"2026-05-16T04:51:32.837Z"}},{"_id":{"$oid":"6a07f7d45175f779df23d212"},"normalizedName":"giza south station","deleted":false,"__v":0,"aliases":[],"coordinates":{"type":"Point","coordinates":[31.19,30.01]},"country":"Egypt","createdAt":{"$date":"2026-05-16T04:51:32.837Z"},"name":"Giza South Station","priority":0,"status":"active","timezone":"Africa/Cairo","updatedAt":{"$date":"2026-05-16T04:51:32.837Z"}},{"_id":{"$oid":"6a07f7d45175f779df23d213"},"deleted":false,"normalizedName":"sheikh zayed station","__v":0,"aliases":[],"coordinates":{"type":"Point","coordinates":[30.976,30.044]},"country":"Egypt","createdAt":{"$date":"2026-05-16T04:51:32.837Z"},"name":"Sheikh Zayed Station","priority":0,"status":"active","timezone":"Africa/Cairo","updatedAt":{"$date":"2026-05-16T04:52:53.462Z"}},{"_id":{"$oid":"6a07f7d45175f779df23d214"},"normalizedName":"october industrial station","deleted":false,"__v":0,"aliases":[],"coordinates":{"type":"Point","coordinates":[30.91,29.95]},"country":"Egypt","createdAt":{"$date":"2026-05-16T04:51:32.837Z"},"name":"October Industrial Station","priority":0,"status":"active","timezone":"Africa/Cairo","updatedAt":{"$date":"2026-05-16T04:51:32.837Z"}},{"_id":{"$oid":"6a07f7f45175f779df23d215"},"deleted":false,"normalizedName":"ramses station","__v":0,"aliases":[],"coordinates":{"type":"Point","coordinates":[31.246,30.062]},"country":"Egypt","createdAt":{"$date":"2026-05-16T04:52:04.121Z"},"name":"Ramses Station","priority":0,"status":"active","timezone":"Africa/Cairo","updatedAt":{"$date":"2026-05-16T04:52:53.462Z"}},{"_id":{"$oid":"6a07f7f45175f779df23d216"},"normalizedName":"el giza station","deleted":false,"__v":0,"aliases":[],"coordinates":{"type":"Point","coordinates":[31.207,30.0131]},"country":"Egypt","createdAt":{"$date":"2026-05-16T04:52:04.121Z"},"name":"El Giza Station","priority":0,"status":"active","timezone":"Africa/Cairo","updatedAt":{"$date":"2026-05-16T04:52:04.121Z"}},{"_id":{"$oid":"6a07f7f45175f779df23d217"},"normalizedName":"agouza station","deleted":false,"__v":0,"aliases":[],"coordinates":{"type":"Point","coordinates":[31.216,30.056]},"country":"Egypt","createdAt":{"$date":"2026-05-16T04:52:04.121Z"},"name":"Agouza Station","priority":0,"status":"active","timezone":"Africa/Cairo","updatedAt":{"$date":"2026-05-16T04:52:04.121Z"}},{"_id":{"$oid":"6a07f7f45175f779df23d218"},"deleted":false,"normalizedName":"shubra station","__v":0,"aliases":[],"coordinates":{"type":"Point","coordinates":[31.246,30.128]},"country":"Egypt","createdAt":{"$date":"2026-05-16T04:52:04.121Z"},"name":"Shubra Station","priority":0,"status":"active","timezone":"Africa/Cairo","updatedAt":{"$date":"2026-05-16T04:52:04.121Z"}},{"_id":{"$oid":"6a07f7f45175f779df23d219"},"normalizedName":"rod el farag station","deleted":false,"__v":0,"aliases":[],"coordinates":{"type":"Point","coordinates":[31.235,30.11]},"country":"Egypt","createdAt":{"$date":"2026-05-16T04:52:04.121Z"},"name":"Rod El Farag Station","priority":0,"status":"active","timezone":"Africa/Cairo","updatedAt":{"$date":"2026-05-16T04:52:04.121Z"}},{"_id":{"$oid":"6a07f7f45175f779df23d21a"},"deleted":false,"normalizedName":"imbaba central station","__v":0,"aliases":[],"coordinates":{"type":"Point","coordinates":[31.21,30.07]},"country":"Egypt","createdAt":{"$date":"2026-05-16T04:52:04.121Z"},"name":"Imbaba Central Station","priority":0,"status":"active","timezone":"Africa/Cairo","updatedAt":{"$date":"2026-05-16T04:52:04.121Z"}},{"_id":{"$oid":"6a07f7f45175f779df23d21b"},"normalizedName":"boulak station","deleted":false,"__v":0,"aliases":[],"coordinates":{"type":"Point","coordinates":[31.23,30.08]},"country":"Egypt","createdAt":{"$date":"2026-05-16T04:52:04.121Z"},"name":"Boulak Station","priority":0,"status":"active","timezone":"Africa/Cairo","updatedAt":{"$date":"2026-05-16T04:52:04.121Z"}},{"_id":{"$oid":"6a07f7f45175f779df23d21c"},"deleted":false,"normalizedName":"zamalek station","__v":0,"aliases":[],"coordinates":{"type":"Point","coordinates":[31.224,30.064]},"country":"Egypt","createdAt":{"$date":"2026-05-16T04:52:04.121Z"},"name":"Zamalek Station","priority":0,"status":"active","timezone":"Africa/Cairo","updatedAt":{"$date":"2026-05-16T04:52:53.462Z"}},{"_id":{"$oid":"6a07f7f45175f779df23d21d"},"deleted":false,"normalizedName":"maasara station","__v":0,"aliases":[],"coordinates":{"type":"Point","coordinates":[31.33,29.87]},"country":"Egypt","createdAt":{"$date":"2026-05-16T04:52:04.121Z"},"name":"Maasara Station","priority":0,"status":"active","timezone":"Africa/Cairo","updatedAt":{"$date":"2026-05-16T04:52:04.121Z"}},{"_id":{"$oid":"6a07f7f45175f779df23d21e"},"normalizedName":"tora station","deleted":false,"__v":0,"aliases":[],"coordinates":{"type":"Point","coordinates":[31.265,29.95]},"country":"Egypt","createdAt":{"$date":"2026-05-16T04:52:04.121Z"},"name":"Tora Station","priority":0,"status":"active","timezone":"Africa/Cairo","updatedAt":{"$date":"2026-05-16T04:52:53.462Z"}},{"_id":{"$oid":"6a07f7f45175f779df23d21f"},"deleted":false,"normalizedName":"maadi degla station","__v":0,"aliases":[],"coordinates":{"type":"Point","coordinates":[31.27,29.96]},"country":"Egypt","createdAt":{"$date":"2026-05-16T04:52:04.121Z"},"name":"Maadi Degla Station","priority":0,"status":"active","timezone":"Africa/Cairo","updatedAt":{"$date":"2026-05-16T04:52:04.121Z"}},{"_id":{"$oid":"6a07f7f45175f779df23d220"},"normalizedName":"new maadi station","deleted":false,"__v":0,"aliases":[],"coordinates":{"type":"Point","coordinates":[31.265,29.94]},"country":"Egypt","createdAt":{"$date":"2026-05-16T04:52:04.121Z"},"name":"New Maadi Station","priority":0,"status":"active","timezone":"Africa/Cairo","updatedAt":{"$date":"2026-05-16T04:52:04.121Z"}},{"_id":{"$oid":"6a07f7f45175f779df23d221"},"deleted":false,"normalizedName":"new cairo 1 station","__v":0,"aliases":[],"coordinates":{"type":"Point","coordinates":[31.485,30.02]},"country":"Egypt","createdAt":{"$date":"2026-05-16T04:52:04.121Z"},"name":"New Cairo 1 Station","priority":0,"status":"active","timezone":"Africa/Cairo","updatedAt":{"$date":"2026-05-16T04:52:04.121Z"}},{"_id":{"$oid":"6a07f7f45175f779df23d222"},"normalizedName":"new cairo 2 station","deleted":false,"__v":0,"aliases":[],"coordinates":{"type":"Point","coordinates":[31.5,30.03]},"country":"Egypt","createdAt":{"$date":"2026-05-16T04:52:04.121Z"},"name":"New Cairo 2 Station","priority":0,"status":"active","timezone":"Africa/Cairo","updatedAt":{"$date":"2026-05-16T04:52:04.121Z"}},{"_id":{"$oid":"6a07f7f45175f779df23d223"},"deleted":false,"normalizedName":"rehab city station","__v":0,"aliases":[],"coordinates":{"type":"Point","coordinates":[31.49,30.06]},"country":"Egypt","createdAt":{"$date":"2026-05-16T04:52:04.121Z"},"name":"Rehab City Station","priority":0,"status":"active","timezone":"Africa/Cairo","updatedAt":{"$date":"2026-05-16T04:52:04.121Z"}},{"_id":{"$oid":"6a07f7f45175f779df23d224"},"normalizedName":"shorouk station","deleted":false,"__v":0,"aliases":[],"coordinates":{"type":"Point","coordinates":[31.64,30.15]},"country":"Egypt","createdAt":{"$date":"2026-05-16T04:52:04.121Z"},"name":"Shorouk Station","priority":0,"status":"active","timezone":"Africa/Cairo","updatedAt":{"$date":"2026-05-16T04:52:04.121Z"}},{"_id":{"$oid":"6a07f7f45175f779df23d225"},"deleted":false,"normalizedName":"badr station","__v":0,"aliases":[],"coordinates":{"type":"Point","coordinates":[31.72,30.13]},"country":"Egypt","createdAt":{"$date":"2026-05-16T04:52:04.121Z"},"name":"Badr Station","priority":0,"status":"active","timezone":"Africa/Cairo","updatedAt":{"$date":"2026-05-16T04:52:04.121Z"}},{"_id":{"$oid":"6a07f7f45175f779df23d226"},"normalizedName":"obour station","deleted":false,"__v":0,"aliases":[],"coordinates":{"type":"Point","coordinates":[31.48,30.22]},"country":"Egypt","createdAt":{"$date":"2026-05-16T04:52:04.121Z"},"name":"Obour Station","priority":0,"status":"active","timezone":"Africa/Cairo","updatedAt":{"$date":"2026-05-16T04:52:04.121Z"}},{"_id":{"$oid":"6a07f7f45175f779df23d227"},"deleted":false,"normalizedName":"10th of ramadan station","__v":0,"aliases":[],"coordinates":{"type":"Point","coordinates":[31.74,30.316]},"country":"Egypt","createdAt":{"$date":"2026-05-16T04:52:04.121Z"},"name":"Cairo Central","priority":0,"status":"active","timezone":"Africa/Cairo","updatedAt":{"$date":"2026-05-20T19:48:55.113Z"}},{"_id":{"$oid":"6a07f7f45175f779df23d228"},"normalizedName":"industrial zone 1 station","deleted":false,"__v":0,"aliases":[],"coordinates":{"type":"Point","coordinates":[31.75,30.31]},"country":"Egypt","createdAt":{"$date":"2026-05-16T04:52:04.121Z"},"name":"Industrial Zone 1 Station","priority":0,"status":"active","timezone":"Africa/Cairo","updatedAt":{"$date":"2026-05-16T04:52:04.121Z"}},{"_id":{"$oid":"6a07f7f45175f779df23d229"},"deleted":false,"normalizedName":"industrial zone 2 station","__v":0,"aliases":[],"coordinates":{"type":"Point","coordinates":[31.76,30.32]},"country":"Egypt","createdAt":{"$date":"2026-05-16T04:52:04.121Z"},"name":"Industrial Zone 2 Station","priority":0,"status":"active","timezone":"Africa/Cairo","updatedAt":{"$date":"2026-05-16T04:52:04.121Z"}},{"_id":{"$oid":"6a07f7f45175f779df23d22a"},"normalizedName":"belbeis station","deleted":false,"__v":0,"aliases":[],"coordinates":{"type":"Point","coordinates":[31.57,30.417]},"country":"Egypt","createdAt":{"$date":"2026-05-16T04:52:04.121Z"},"name":"Belbeis Station","priority":0,"status":"active","timezone":"Africa/Cairo","updatedAt":{"$date":"2026-05-16T04:52:53.462Z"}},{"_id":{"$oid":"6a07f7f45175f779df23d22b"},"normalizedName":"minya el qamh station","deleted":false,"__v":0,"aliases":[],"coordinates":{"type":"Point","coordinates":[31.222,30.559]},"country":"Egypt","createdAt":{"$date":"2026-05-16T04:52:04.121Z"},"name":"Minya El Qamh Station","priority":0,"status":"active","timezone":"Africa/Cairo","updatedAt":{"$date":"2026-05-16T04:52:53.462Z"}},{"_id":{"$oid":"6a07f7f45175f779df23d22c"},"deleted":false,"normalizedName":"abu kabir station","__v":0,"aliases":[],"coordinates":{"type":"Point","coordinates":[31.166,30.725]},"country":"Egypt","createdAt":{"$date":"2026-05-16T04:52:04.121Z"},"name":"Abu Kabir Station","priority":0,"status":"active","timezone":"Africa/Cairo","updatedAt":{"$date":"2026-05-16T04:52:53.462Z"}},{"_id":{"$oid":"6a07f7f45175f779df23d22d"},"normalizedName":"hehya station","deleted":false,"__v":0,"aliases":[],"coordinates":{"type":"Point","coordinates":[31.55,30.64]},"country":"Egypt","createdAt":{"$date":"2026-05-16T04:52:04.121Z"},"name":"Hehya Station","priority":0,"status":"active","timezone":"Africa/Cairo","updatedAt":{"$date":"2026-05-16T04:52:04.121Z"}},{"_id":{"$oid":"6a07f7f45175f779df23d22e"},"deleted":false,"normalizedName":"kafr saqr station","__v":0,"aliases":[],"coordinates":{"type":"Point","coordinates":[31.627,30.798]},"country":"Egypt","createdAt":{"$date":"2026-05-16T04:52:04.121Z"},"name":"Kafr Saqr Station","priority":0,"status":"active","timezone":"Africa/Cairo","updatedAt":{"$date":"2026-05-16T04:52:53.462Z"}},{"_id":{"$oid":"6a07f7f45175f779df23d22f"},"deleted":false,"normalizedName":"talkha station","__v":0,"aliases":[],"coordinates":{"type":"Point","coordinates":[31.379,31.053]},"country":"Egypt","createdAt":{"$date":"2026-05-16T04:52:04.121Z"},"name":"Talkha Station","priority":0,"status":"active","timezone":"Africa/Cairo","updatedAt":{"$date":"2026-05-16T04:52:53.462Z"}},{"_id":{"$oid":"6a07f7f45175f779df23d230"},"normalizedName":"sinbillawain station","deleted":false,"__v":0,"aliases":[],"coordinates":{"type":"Point","coordinates":[31.12,30.88]},"country":"Egypt","createdAt":{"$date":"2026-05-16T04:52:04.121Z"},"name":"Sinbillawain Station","priority":0,"status":"active","timezone":"Africa/Cairo","updatedAt":{"$date":"2026-05-16T04:52:04.121Z"}},{"_id":{"$oid":"6a07f7f45175f779df23d231"},"deleted":false,"normalizedName":"mit ghamr station","__v":0,"aliases":[],"coordinates":{"type":"Point","coordinates":[31.25,30.715]},"country":"Egypt","createdAt":{"$date":"2026-05-16T04:52:04.121Z"},"name":"Mit Ghamr Station","priority":0,"status":"active","timezone":"Africa/Cairo","updatedAt":{"$date":"2026-05-16T04:52:53.462Z"}},{"_id":{"$oid":"6a07f7f45175f779df23d232"},"normalizedName":"belqas station","deleted":false,"__v":0,"aliases":[],"coordinates":{"type":"Point","coordinates":[31.33,31.215]},"country":"Egypt","createdAt":{"$date":"2026-05-16T04:52:04.121Z"},"name":"Belqas Station","priority":0,"status":"active","timezone":"Africa/Cairo","updatedAt":{"$date":"2026-05-16T04:52:53.462Z"}},{"_id":{"$oid":"6a07f7f45175f779df23d233"},"deleted":false,"normalizedName":"zefta station","__v":0,"aliases":[],"coordinates":{"type":"Point","coordinates":[31.24,30.71]},"country":"Egypt","createdAt":{"$date":"2026-05-16T04:52:04.121Z"},"name":"Zefta Station","priority":0,"status":"active","timezone":"Africa/Cairo","updatedAt":{"$date":"2026-05-16T04:52:04.121Z"}},{"_id":{"$oid":"6a07f7f45175f779df23d234"},"normalizedName":"el mahalla station","deleted":false,"__v":0,"aliases":[],"coordinates":{"type":"Point","coordinates":[31.165,30.97]},"country":"Egypt","createdAt":{"$date":"2026-05-16T04:52:04.121Z"},"name":"El Mahalla Station","priority":0,"status":"active","timezone":"Africa/Cairo","updatedAt":{"$date":"2026-05-16T04:52:04.121Z"}},{"_id":{"$oid":"6a07f7f45175f779df23d235"},"deleted":false,"normalizedName":"samanoud station","__v":0,"aliases":[],"coordinates":{"type":"Point","coordinates":[31.24,30.96]},"country":"Egypt","createdAt":{"$date":"2026-05-16T04:52:04.121Z"},"name":"Samanoud Station","priority":0,"status":"active","timezone":"Africa/Cairo","updatedAt":{"$date":"2026-05-16T04:52:04.121Z"}},{"_id":{"$oid":"6a07f7f45175f779df23d236"},"normalizedName":"damanhour station","deleted":false,"__v":0,"aliases":[],"coordinates":{"type":"Point","coordinates":[30.47,31.04]},"country":"Egypt","createdAt":{"$date":"2026-05-16T04:52:04.121Z"},"name":"Damanhour Station","priority":0,"status":"active","timezone":"Africa/Cairo","updatedAt":{"$date":"2026-05-16T04:52:04.121Z"}},{"_id":{"$oid":"6a07f7f45175f779df23d237"},"deleted":false,"normalizedName":"kafr el dawar station","__v":0,"aliases":[],"coordinates":{"type":"Point","coordinates":[30.132,31.14]},"country":"Egypt","createdAt":{"$date":"2026-05-16T04:52:04.121Z"},"name":"Kafr El Dawar Station","priority":0,"status":"active","timezone":"Africa/Cairo","updatedAt":{"$date":"2026-05-16T04:52:04.121Z"}},{"_id":{"$oid":"6a07f7f45175f779df23d238"},"deleted":false,"normalizedName":"rashid station","__v":0,"aliases":[],"coordinates":{"type":"Point","coordinates":[30.415,31.065]},"country":"Egypt","createdAt":{"$date":"2026-05-16T04:52:04.121Z"},"name":"Rashid Station","priority":0,"status":"active","timezone":"Africa/Cairo","updatedAt":{"$date":"2026-05-16T04:52:04.121Z"}},{"_id":{"$oid":"6a07f7f45175f779df23d239"},"normalizedName":"abu hummus station","deleted":false,"__v":0,"aliases":[],"coordinates":{"type":"Point","coordinates":[30.32,31.2]},"country":"Egypt","createdAt":{"$date":"2026-05-16T04:52:04.121Z"},"name":"Abu Hummus Station","priority":0,"status":"active","timezone":"Africa/Cairo","updatedAt":{"$date":"2026-05-16T04:52:04.121Z"}},{"_id":{"$oid":"6a07f8255175f779df23d23a"},"deleted":false,"normalizedName":"el marg station","__v":0,"aliases":[],"coordinates":{"type":"Point","coordinates":[31.338,30.151]},"country":"Egypt","createdAt":{"$date":"2026-05-16T04:52:53.462Z"},"name":"El Marg Station","priority":0,"status":"active","timezone":"Africa/Cairo","updatedAt":{"$date":"2026-05-16T04:52:53.462Z"}},{"_id":{"$oid":"6a07f8255175f779df23d23b"},"normalizedName":"ain shams station","deleted":false,"__v":0,"aliases":[],"coordinates":{"type":"Point","coordinates":[31.321,30.121]},"country":"Egypt","createdAt":{"$date":"2026-05-16T04:52:53.462Z"},"name":"Ain Shams Station","priority":0,"status":"active","timezone":"Africa/Cairo","updatedAt":{"$date":"2026-05-16T04:52:53.462Z"}},{"_id":{"$oid":"6a07f8255175f779df23d23c"},"normalizedName":"mohandessin station","deleted":false,"__v":0,"aliases":[],"coordinates":{"type":"Point","coordinates":[31.201,30.054]},"country":"Egypt","createdAt":{"$date":"2026-05-16T04:52:53.462Z"},"name":"Mohandessin Station","priority":0,"status":"active","timezone":"Africa/Cairo","updatedAt":{"$date":"2026-05-16T04:52:53.462Z"}},{"_id":{"$oid":"6a07f8255175f779df23d23d"},"deleted":false,"normalizedName":"haram station","__v":0,"aliases":[],"coordinates":{"type":"Point","coordinates":[31.134,30.01]},"country":"Egypt","createdAt":{"$date":"2026-05-16T04:52:53.462Z"},"name":"Haram Station","priority":0,"status":"active","timezone":"Africa/Cairo","updatedAt":{"$date":"2026-05-16T04:52:53.462Z"}},{"_id":{"$oid":"6a07f8255175f779df23d23e"},"normalizedName":"faisal station","deleted":false,"__v":0,"aliases":[],"coordinates":{"type":"Point","coordinates":[31.14,30.017]},"country":"Egypt","createdAt":{"$date":"2026-05-16T04:52:53.462Z"},"name":"Faisal Station","priority":0,"status":"active","timezone":"Africa/Cairo","updatedAt":{"$date":"2026-05-16T04:52:53.462Z"}},{"_id":{"$oid":"6a07f8255175f779df23d23f"},"normalizedName":"bulaq station","deleted":false,"__v":0,"aliases":[],"coordinates":{"type":"Point","coordinates":[31.232,30.064]},"country":"Egypt","createdAt":{"$date":"2026-05-16T04:52:53.462Z"},"name":"Bulaq Station","priority":0,"status":"active","timezone":"Africa/Cairo","updatedAt":{"$date":"2026-05-16T04:52:53.462Z"}},{"_id":{"$oid":"6a07f8255175f779df23d240"},"deleted":false,"normalizedName":"15 may station","__v":0,"aliases":[],"coordinates":{"type":"Point","coordinates":[31.318,29.867]},"country":"Egypt","createdAt":{"$date":"2026-05-16T04:52:53.462Z"},"name":"15 May Station","priority":0,"status":"active","timezone":"Africa/Cairo","updatedAt":{"$date":"2026-05-16T04:52:53.462Z"}},{"_id":{"$oid":"6a07f8255175f779df23d241"},"normalizedName":"al rehab station","deleted":false,"__v":0,"aliases":[],"coordinates":{"type":"Point","coordinates":[31.492,30.064]},"country":"Egypt","createdAt":{"$date":"2026-05-16T04:52:53.462Z"},"name":"Al Rehab Station","priority":0,"status":"active","timezone":"Africa/Cairo","updatedAt":{"$date":"2026-05-16T04:52:53.462Z"}},{"_id":{"$oid":"6a07f8255175f779df23d242"},"normalizedName":"madinty station","deleted":false,"__v":0,"aliases":[],"coordinates":{"type":"Point","coordinates":[31.64,30.069]},"country":"Egypt","createdAt":{"$date":"2026-05-16T04:52:53.462Z"},"name":"Madinty Station","priority":0,"status":"active","timezone":"Africa/Cairo","updatedAt":{"$date":"2026-05-16T04:52:53.462Z"}},{"_id":{"$oid":"6a07f8255175f779df23d243"},"deleted":false,"normalizedName":"obour city station","__v":0,"aliases":[],"coordinates":{"type":"Point","coordinates":[31.462,30.225]},"country":"Egypt","createdAt":{"$date":"2026-05-16T04:52:53.462Z"},"name":"Obour City Station","priority":0,"status":"active","timezone":"Africa/Cairo","updatedAt":{"$date":"2026-05-16T04:52:53.462Z"}},{"_id":{"$oid":"6a07f8255175f779df23d244"},"normalizedName":"hihya station","deleted":false,"__v":0,"aliases":[],"coordinates":{"type":"Point","coordinates":[31.377,30.666]},"country":"Egypt","createdAt":{"$date":"2026-05-16T04:52:53.462Z"},"name":"Hihya Station","priority":0,"status":"active","timezone":"Africa/Cairo","updatedAt":{"$date":"2026-05-16T04:52:53.462Z"}},{"_id":{"$oid":"6a07f8255175f779df23d245"},"deleted":false,"normalizedName":"faqous station","__v":0,"aliases":[],"coordinates":{"type":"Point","coordinates":[31.809,30.727]},"country":"Egypt","createdAt":{"$date":"2026-05-16T04:52:53.462Z"},"name":"Faqous Station","priority":0,"status":"active","timezone":"Africa/Cairo","updatedAt":{"$date":"2026-05-16T04:52:53.462Z"}},{"_id":{"$oid":"6a07f8255175f779df23d246"},"deleted":false,"normalizedName":"diyarb negm station","__v":0,"aliases":[],"coordinates":{"type":"Point","coordinates":[31.486,30.715]},"country":"Egypt","createdAt":{"$date":"2026-05-16T04:52:53.462Z"},"name":"Diyarb Negm Station","priority":0,"status":"active","timezone":"Africa/Cairo","updatedAt":{"$date":"2026-05-16T04:52:53.462Z"}},{"_id":{"$oid":"6a07f8255175f779df23d247"},"deleted":false,"normalizedName":"dekernes station","__v":0,"aliases":[],"coordinates":{"type":"Point","coordinates":[31.599,31.09]},"country":"Egypt","createdAt":{"$date":"2026-05-16T04:52:53.462Z"},"name":"Dekernes Station","priority":0,"status":"active","timezone":"Africa/Cairo","updatedAt":{"$date":"2026-05-16T04:52:53.462Z"}},{"_id":{"$oid":"6a07f8255175f779df23d248"},"normalizedName":"el arish port station","deleted":false,"__v":0,"aliases":[],"coordinates":{"type":"Point","coordinates":[33.802,31.123]},"country":"Egypt","createdAt":{"$date":"2026-05-16T04:52:53.462Z"},"name":"El Arish Port Station","priority":0,"status":"active","timezone":"Africa/Cairo","updatedAt":{"$date":"2026-05-16T04:52:53.462Z"}}]
